{"type":"FeatureCollection","features":[{"type":"Feature","properties":{"title":"Apartments  am Schroersdyk, Wohnen auf Zeit","description":"Ausstattung Appartement 1 (2 bis 3 Personen)\r\n65 qm\r\nZimmer mit Bad/WC\r\nFernseher\r\nPantry-Küche\r\nKleine Terrasse\r\nWLAN\r\nAusstattung Appartement 2\r\n35 qm\r\neinfaches Appartement im Souterrain mit Tageslicht\r\nZimmer mit Dusche/WC\r\nFernsehen\r\nKüche\r\nWLAN\r\n\r\n","short":"Preise Appartement 1: 2 Personen 59 €, 3. Person + 10 €, Preis Appartement 2: 2  Personen 39 € (mindestens 2 Nächte)","cat1":["Hotel","Gästehaus"],"cat2":"ab 50 Euro","street":"Schroersdyk 15","zip":"47802","city":"Krefeld","region":"Innenstadt","tel":"0 21 51 / 65 94 16","mail":"hwkauffmann.krefeld@gmail.com","features":["Appartement","Arpeitsplatz","Zimmer mit Dusche/WC","Nichtraucher","Pantry-Küche","WLAN","Zimmerfernsehen"],"beds":5,"lat":51.352241,"lng":6.541402},"geometry":{"type":"Point","coordinates":[6.541402,51.352241]}},{"type":"Feature","properties":{"title":"Apartments Luisenhof","short":"Preise 49 bis 99 €, Möblierter Bauwagen und ein 60 Quadratmeter Haus, 4 Appartements","cat1":["Hotel","Gästehaus"],"cat2":"ab 28 Euro","street":"Flünnertzdyk 161","zip":"47802","city":"Krefeld","region":"Hülser Bruch","tel":"0170 / 6 97 76 94","mail":"doris.driehsen@googlemail.com","features":["Appartment","Zimmer mit Bad/WC","Zimmer mit Dusche/WC","Garten","Konferenzzimmer","Parkplatz","WLAN","Zimmerfernsehen"],"beds":18,"lat":51.361601,"lng":6.55441},"geometry":{"type":"Point","coordinates":[6.55441,51.361601]}},{"type":"Feature","properties":{"title":"Appartement Flora","cat1":["Hotel","Gästehaus"],"cat2":"ab 50 Euro","street":"Florastraße 46","zip":"47799","city":"Krefeld","tel":"0 21 51 / 9 42 73 74","mail":"info@appartement-flora.de","features":"Ferienwohnung","beds":5,"lat":51.334468,"lng":6.580898},"geometry":{"type":"Point","coordinates":[6.580898,51.334468]}},{"type":"Feature","properties":{"title":"Bed and Breakfast am Niederrhein","short":"Privatzimmer- und Ferienwohnungs-Vermittlung","cat1":"Hotel","cat2":"ab 28 Euro","zip":"47800","city":"Krefeld","tel":"0 21 51 / 59 36 17","mail":"Doris.Knaab@t-online.de","lat":null,"lng":null},"geometry":{"type":"Point","coordinates":[null,null]}},{"type":"Feature","properties":{"title":"Bed and Kitchen - Jörg Groß","short":"Dachgeschosswohnung für 2 bis 3 Personen","cat1":["Hotel","Gästehaus"],"cat2":"ab 50 Euro","street":"Thorn-Prikker-Straße 10 ","zip":"47800","city":"Krefeld","region":"Bockum","tel":"0 21 51 / 48 16 02 ","mail":"tallit2001@yahoo.de","features":["Küche","eigenes Bad","Internet/W-LAN","Fernseher"],"beds":2,"lat":51.351897,"lng":6.602884},"geometry":{"type":"Point","coordinates":[6.602884,51.351897]}},{"type":"Feature","properties":{"title":"Bistro Franken","cat1":"Gastronomie","street":"Königstraße 123","zip":"47798","city":"Krefeld","region":"Innenstadt","tel":"0 21 51 / 2 09 57","mail":"info@delikatessen-franken.de","lat":51.33266,"lng":6.564042},"geometry":{"type":"Point","coordinates":[6.564042,51.33266]}},{"type":"Feature","properties":{"title":"Blauer Engel","cat1":"Gastronomie","street":"Schwertstraße 144","zip":"47799","city":"Krefeld","region":"Innenstadt","tel":"0 21 51 / 39 34 59","mail":"post@blauer-engel-krefeld.de","lat":51.328318,"lng":6.568898},"geometry":{"type":"Point","coordinates":[6.568898,51.328318]}},{"type":"Feature","properties":{"title":"B&B Hotel Krefeld","short":"Preis Familienzimmer: ab 82 €, Frühstück: 7,50 € pro Person","cat1":"Hotel","cat2":"ab 50 Euro","street":"Bahnhofstraße 73","zip":"47799","city":"Krefeld","region":"Innenstadt","tel":"0 21 51 / 65 51 66-0","mail":"krefeld@hotelbb.com","features":["Zimmer mit Dusche/WC","Haustiere erlaubt","Lift","Parkplatz","W-Lan","Zimmerfernsehen"],"beds":100,"lat":51.357844,"lng":6.648198},"geometry":{"type":"Point","coordinates":[6.648198,51.357844]}},{"type":"Feature","properties":{"title":"Café-Restaurant Lus Bell","cat1":"Gastronomie","street":"Nieper Straße 242","zip":"47802","city":"Krefeld","region":"Traar","tel":"0 21 51 / 4 14 95 05\r\n","mail":"info@lus-bell-krefeld.de","lat":51.383873,"lng":6.557225},"geometry":{"type":"Point","coordinates":[6.557225,51.383873]}},{"type":"Feature","properties":{"title":"Café am Rudersteg des Erholungspark Elfrather See","cat1":"Gastronomie","street":"Bruchweg 26/28 ","zip":"47829","city":"Krefeld","region":"Uerdingen","lat":51.376206,"lng":6.630868},"geometry":{"type":"Point","coordinates":[6.630868,51.376206]}},{"type":"Feature","properties":{"title":"Café Coelen in der Mediothek","cat1":"Gastronomie","street":"Theaterplatz 2","zip":"47798","city":"Krefeld","region":"Innenstadt","tel":" 0 21 51 / 1 54 64 88\r\n","lat":51.335211,"lng":6.563226},"geometry":{"type":"Point","coordinates":[6.563226,51.335211]}},{"type":"Feature","properties":{"title":"Café del Sol","cat1":"Gastronomie","street":"Violstraße 1","zip":"47800","city":"Krefeld","region":"Bockum","tel":"0 21 51 / 5 13 62 68","mail":"krefeld@cafedelsol.de","lat":51.336847,"lng":6.602044},"geometry":{"type":"Point","coordinates":[6.602044,51.336847]}},{"type":"Feature","properties":{"title":"Café Extrablatt","cat1":"Gastronomie","street":"Hochstraße 62","zip":"47798","city":"Krefeld","region":"Innenstadt","tel":"0 21 51 / 6 53 82 07","mail":"krefeld@cafe-extrablatt.de ","lat":51.330766,"lng":6.56304},"geometry":{"type":"Point","coordinates":[6.56304,51.330766]}},{"type":"Feature","properties":{"title":"Café Extrablatt","cat1":"Gastronomie","street":"Ostwall 158","zip":"47798","city":"Krefeld","region":"Innenstadt","tel":"0 21 51 / 1 54 06 79","mail":"krefeld-ostwall@cafe-extrablatt.de ","lat":51.332961,"lng":6.565307},"geometry":{"type":"Point","coordinates":[6.565307,51.332961]}},{"type":"Feature","properties":{"title":"Café Kosmopolit","cat1":"Gastronomie","street":"Lindenstraße 7","zip":"47798","city":"Krefeld","region":"Innenstadt","tel":"0171 / 6 86 09 09","lat":51.328466,"lng":6.563994},"geometry":{"type":"Point","coordinates":[6.563994,51.328466]}},{"type":"Feature","properties":{"title":"Café Liesgen - Kunst + Kuchen","cat1":"Gastronomie","street":"Wiedenhofstraße 7","zip":"47798","city":"Krefeld","region":"Innenstadt","mail":"brief@liesgen.de","lat":51.329031,"lng":6.562635},"geometry":{"type":"Point","coordinates":[6.562635,51.329031]}},{"type":"Feature","properties":{"title":"Café Restaurant Parkschlösschen","cat1":"Gastronomie","street":"Talring 110","zip":"47802","city":"Krefeld","region":"Hüls","tel":"0 21 51 / 73 51 25","lat":51.397016,"lng":6.53423},"geometry":{"type":"Point","coordinates":[6.53423,51.397016]}},{"type":"Feature","properties":{"title":"Cafe & Bar Celona","cat1":"Gastronomie","street":"Petersstraße 120","zip":"47799","city":"Krefeld","region":"Innenstadt","tel":"0 21 51 / 65 44 04","mail":"krefeld@cafe-bar-celona.de","lat":51.331909,"lng":6.564951},"geometry":{"type":"Point","coordinates":[6.564951,51.331909]}},{"type":"Feature","properties":{"title":"Café/Gästehaus Kornblume","short":"Wochenendpreise: Einzelzimmer 67 € und Doppelzimmer 99 €","cat1":["Hotel","Hotel_Rest","Gästehaus"],"cat2":"ab 50 Euro","street":"Hinterorbroich 16","zip":"47839","city":"Krefeld","region":"Hüls","tel":"0 21 51 / 62 34 44","mail":"cafe_kornblume@gmx.de","features":["Barrierefrei","Zimmer mit Bad/WC","Haustiere erlaubt","Parkplatz","Restaurant","WLAN","Zimmerfernsehen"],"beds":18,"lat":51.397817,"lng":6.492342},"geometry":{"type":"Point","coordinates":[6.492342,51.397817]}},{"type":"Feature","properties":{"title":"City-Hotel Krefeld***","short":"Appartement 1 bis 4 Personen 80 €, Wochenend-Preis ab 71 €, Wochenendpreise: Einzelzimmer ab 65 € / Doppelzimmer ab 80 €","cat1":["Gastronomie","Hotel"],"cat2":"ab 50 Euro","street":"Philadelphiastraße 63 ","zip":"47798","city":"Krefeld","region":"Innenstadt","tel":"0 21 51 / 62 60","mail":"cityhotel-krefeld@t-online.de","features":["Appartement","Zimmer mit Bad/WC","Zimmer mit Dusche/WC","Garage","Konferenzzimmer","Lift","Parkplatz","Restaurant","W-Lan (Telekom-HotSpot kostenpflichtig)","Zimmerfernsehen"],"beds":130,"lat":51.331157,"lng":6.573731},"geometry":{"type":"Point","coordinates":[6.573731,51.331157]}},{"type":"Feature","properties":{"title":"Dachsbau - Das Haus der Biere!","cat1":"Gastronomie","street":"Hubertusstraße 79","zip":"47798","city":"Krefeld","region":"Innenstadt","tel":"0 21 51 / 77 44 44\r\n","mail":"info@dachsbau.de","lat":51.331169,"lng":6.557679},"geometry":{"type":"Point","coordinates":[6.557679,51.331169]}},{"type":"Feature","properties":{"title":"Das Café - Frühstücks- und Brunchrestaurant","cat1":"Gastronomie","street":"Tannenstraße 147","zip":"47798","city":"Krefeld","region":"Innenstadt","tel":"0 21 51 / 77 56 10","lat":51.327544,"lng":6.559159},"geometry":{"type":"Point","coordinates":[6.559159,51.327544]}},{"type":"Feature","properties":{"title":"DAVINCI","cat1":"Gastronomie","street":"Dionysiusplatz 15 ","zip":"47798","city":"Krefeld","region":"Innenstadt","tel":"0 21 51 / 4 11 53 60","mail":"info@davinci-krefeld.com","lat":51.333027,"lng":6.561074},"geometry":{"type":"Point","coordinates":[6.561074,51.333027]}},{"type":"Feature","properties":{"title":"Essklasse Krefeld","cat1":"Gastronomie","street":"Westparkstraße 105","zip":"47803","city":"Krefeld","region":"Innenstadt","tel":"0 21 51 / 50 01 10","mail":"essklasse@essklasse-krefeld.de","lat":51.339749,"lng":6.542827},"geometry":{"type":"Point","coordinates":[6.542827,51.339749]}},{"type":"Feature","properties":{"title":"Ferienhaus Hüskes","short":"Preis Appartement: 30 € pro Person, Wochenendpauschalen und  Einzelübernachtungen auf Anfrage","cat1":["Hotel","Gästehaus"],"cat2":"ab 28 Euro","street":"Oberbenrader Staße 29a","zip":"47804","city":"Krefeld","tel":"0 21 51 / 39 28 28, Mobil: 0176 / 44 51 59 87","mail":"wbd.hueskes@arcor.de","features":["Appartement","Zimmer mit Bad/WC","Zimmer mit Dusche/WC","Garten","Küche","Nichtraucherhaus","Parkplatz","3 Schlafzimmer","Wohn-/Esszimmer","Küche","2 Bäder","WLAN","Zimmerfernsehen"],"beds":10,"lat":51.302459,"lng":6.529562},"geometry":{"type":"Point","coordinates":[6.529562,51.302459]}},{"type":"Feature","properties":{"title":"Ferienwohnung Königshof","short":"Belegung der Wohnung mit 2 bis 4 Personen unter 3 Tage 80 €, über 3 Tage 70 €, jede weitere Person 13 €","cat1":["Hotel","Gästehaus"],"cat2":"ab 50 Euro","street":"Von-Ketteler-Straße 46","zip":"47807","city":"Krefeld","region":"Königshof","tel":"0 21 51 / 4 54 84 33","mail":"koenigshoffewo@yahoo.de","features":["70 Quadratmeter Wohnfläche","2 Schlafzimmer","Wohn-/Esszimmer","Küche","Bad mit Wanne/Dusche","Ausziehcouch"],"beds":6,"lat":51.31452,"lng":6.58311},"geometry":{"type":"Point","coordinates":[6.58311,51.31452]}},{"type":"Feature","properties":{"title":"Ferienwohnung Peter Lehnen","short":"Preis: 1 Person 35 €, 2 Personen 50 €, weitere Preise per Anfrage","cat1":["Hotel","Gästehaus"],"cat2":"ab 28 Euro","street":"Klosterstraße 28","zip":"47798","city":"Krefeld","region":"Innenstadt","tel":"0 21 51 / 97 86 13 ","mail":"fewo@peter-lehnen.de","features":["Nichtraucher-Appartement","50 Quadratmeter","Küche","Bad mit Badewanne und Dusche","Toilette","Balkon","Wäscheservice","WLAN","Zimerfernsehen"],"beds":4,"lat":51.333911,"lng":6.560797},"geometry":{"type":"Point","coordinates":[6.560797,51.333911]}},{"type":"Feature","properties":{"title":"Ferienzimmer Bossi","short":"Preis: 30 € pro Person (inklusive Nebenkosten und Bettwäsche, ohne Frühstück)","cat1":["Hotel","Ferienzimmer"],"cat2":"ab 28 Euro","street":"Oberbenrader Straße 29","zip":"47804","city":"Krefeld","tel":"0170 / 3 43 55 66","mail":"savaboskovic@web.de","features":["2 Zimmer mit Dusche/WC (Nichtraucher)","Haustiere erlaubt","Garage auf Anfrage Parkplatz","WLAN","Zimmerfernsehen"],"beds":2,"lat":51.302155,"lng":6.529525},"geometry":{"type":"Point","coordinates":[6.529525,51.302155]}},{"type":"Feature","properties":{"title":"Gästehaus Ambiente","short":"Appartement: 65 €, alle Preise ohne Frühstück","cat1":["Hotel","Gästehaus"],"cat2":"ab 28 Euro","street":"Düsseldorfer Straße 374","zip":"47809","city":"Krefeld","region":"Uerdingen","tel":"0 21 51 / 57 22 23","mail":"gaestehaus-ambiente@arcor.de","features":["Appartement","Zimmer mit Dusche/WC","Garten","Parkplatz","WLAN","Zimmerfernsehen"],"beds":9,"lat":51.324387,"lng":6.673135},"geometry":{"type":"Point","coordinates":[6.673135,51.324387]}},{"type":"Feature","properties":{"title":"Gästehaus Saint-Denis","short":"Appartment als Einzelzimmer ab 90 €, als Doppelzimmer  ab105 €, jede weitere Person 25 €","cat1":["Hotel","Gästehaus"],"cat2":"ab 50 Euro","street":"Dionysiusstraße 5","zip":"47798","city":"Krefeld","region":"Innenstadt","tel":"0 21 51 / 9 28 80 20","mail":"info@gaestehaus-saint-denis.de","features":["Zimmer mit Bad/WC","Zimmer mit Dusche/WC","WLAN","Zimmerfernsehen"],"beds":10,"lat":51.332578,"lng":6.559397},"geometry":{"type":"Point","coordinates":[6.559397,51.332578]}},{"type":"Feature","properties":{"title":"Garden Hotel Krefeld","short":"Wochenendpreise: Einzelzimmer 68 € / Doppelzimmer 88 €\r\n\r\n","cat1":"Hotel","cat2":"ab 50 Euro","street":"Schönwasserstraße 12 a","zip":"47800","city":"Krefeld","region":"Bockum","tel":"0 21 51 / 53 52 30","mail":"info@gardenhotel.de","features":["Appartement","Zimmer mit Bad/WC","Zimmer mit Dusche/WC","Dachterrasse","Fahrradverleih","Garage","Haustiere auf Anfrage","Lift","Minibar","Parkplatz","Radio","Sky Sportsbar","W-Lan","Zimmerfernsehen","24 Stunden Emfpang"],"beds":70,"lat":51.335877,"lng":6.59867},"geometry":{"type":"Point","coordinates":[6.59867,51.335877]}},{"type":"Feature","properties":{"title":"Gasthaus Marcelli","cat1":"Gastronomie","street":"Moerser Straße 649","zip":"47802","city":"Krefeld","region":"Verberg","tel":"0 21 51 / 56 09 74","mail":"marcelli.krefeld@t-online.de","lat":51.362292,"lng":6.570708},"geometry":{"type":"Point","coordinates":[6.570708,51.362292]}},{"type":"Feature","properties":{"title":"Grotenburgschlösschen im Krefelder Zoo","cat1":"Gastronomie","street":"Uerdinger Straße 377","zip":"47800","city":"Krefeld","region":"Bockum","tel":"0 21 51 / 36 96 96","mail":"peter.stech@t-online.de","lat":51.341048,"lng":6.602601},"geometry":{"type":"Point","coordinates":[6.602601,51.341048]}},{"type":"Feature","properties":{"title":"Haus Kleinlosen","cat1":"Gastronomie","street":"Zwingenbergstraße 116","zip":"47803","city":"Krefeld","region":"Verberg","tel":"0 21 51 / 56 13  13","mail":"info@haus-kleinlosen.de","lat":51.363434,"lng":6.597588},"geometry":{"type":"Point","coordinates":[6.597588,51.363434]}},{"type":"Feature","properties":{"title":"Haus Klings","cat1":["Hotel","Hotel_Rest","Gästehaus"],"cat2":"ab 28 Euro","street":"Krefelder Staße 81","zip":"47839","city":"Krefeld","region":"Hüls","tel":"0 21 51 / 73 25 73","mail":"hotelklings@arcor.de","features":["Zimmer mit Bad/WC","Zimmer mit Dusche/WC","Etagenbäder","Konferenzzimmer","Restaurant (dienstags geschlossen)","Zimmerfernsehen"],"beds":9,"lat":51.369883,"lng":6.512734},"geometry":{"type":"Point","coordinates":[6.512734,51.369883]}},{"type":"Feature","properties":{"title":"Hotel-Brauhaus Niederrheinischer Hof ***Superior","short":"Preis Einzelzimmer Wochenende: ab 59 €, Preis Doppelzimmer Wochenende: ab 79 €, Appartement (Doppelzimmer) ab 150 €, ","cat1":["Gastronomie","Hotel"],"cat2":"ab 50 Euro","street":"Hülser Straße 398 - 402","zip":"47803","city":"Krefeld","region":"Nord","tel":"0 21 51 / 65 06 60","mail":"info@niederrheinischerhof.de","features":["Appartement","Zimmer mit Dusche/WC","Biergarten","Haustiere erlaubt (15 € pro Übernachtung)","Konferenzzimmer","Parkplatz","Restaurant","Terasse","W-LAN","Zimmerfernsehen"],"beds":61,"lat":51.350082,"lng":6.539374},"geometry":{"type":"Point","coordinates":[6.539374,51.350082]}},{"type":"Feature","properties":{"title":"Hotel-Restaurant Benger***","short":"Wochenendpreise: Einzelzimmer 59 €, Doppelzimmer 85 €","cat1":["Gastronomie","Hotel"],"cat2":"ab 50 Euro","street":"Uerdinger Straße 620","zip":"47800","city":"Krefeld","region":"Bockum","tel":"0 21 51 / 9 55 40","mail":"reservierung@hotel-benger.de","features":["Zimmer mit Bad/WC","Zimmer mit Dusche/WC","Garage","Konferenzzimmer","Parkplatz","Restaurant","Sky-Sport","V-DSL","Zimmerfernsehen","Zimmertelefon"],"beds":30,"lat":51.347622,"lng":6.618441},"geometry":{"type":"Point","coordinates":[6.618441,51.347622]}},{"type":"Feature","properties":{"title":"Hotel-Restaurant Zur Brücke **","cat1":["Gastronomie","Hotel"],"cat2":"ab 28 Euro","street":"Viktor-Jakubowicz-Straße 11","zip":"47829","city":"Krefeld","region":"Uerdingen","tel":"0 21 51 / 4 26 66","mail":"info@hzb-krefeld.de","features":["Zimmer mit Dusche/WC","Parkplatz (kostenlos)","Restaurant (sonn- und feiertags geschlossen)","Zimmerfernsehen","W-Lan (V-DSL)"],"beds":30,"lat":51.3474,"lng":6.64751},"geometry":{"type":"Point","coordinates":[6.64751,51.3474]}},{"type":"Feature","properties":{"title":"Hotel Alte Post ***","short":"Wochenendpreise: Einzelzimmer 59 € / Doppelzimmer 89 €","cat1":"Hotel","cat2":"ab 50 Euro","street":"Uerdinger Straße 550 a","zip":"47800","city":"Krefeld","region":"Bockum","tel":"0 21 51 / 5 88 40","mail":"info@alte-post-krefeld.de","features":["Zimmer mit Bad/WC","Zimmer mit Dusche/WC","Garage","Garten","Haustiere erlaubt","Konferenzzimmer","Lift","Parkplatz","W-LAN","Zimmerfernsehen"],"beds":54,"lat":51.345348,"lng":6.61405},"geometry":{"type":"Point","coordinates":[6.61405,51.345348]}},{"type":"Feature","properties":{"title":"Hotel am Nordwall","cat1":["Hotel","Gästehaus"],"cat2":"ab 28 Euro","street":"Hubertusstraße 180","zip":"47798","city":"Krefeld","region":"Innenstadt","tel":"0 21 51 / 77 31 51","mail":"weiss.ria@arcor.de","features":["Zimmer mit Dusche/WC","Etagenbäder","Haustiere erlaubt","Minibar","Zimmerfernsehen"],"beds":8,"lat":51.335675,"lng":6.554796},"geometry":{"type":"Point","coordinates":[6.554796,51.335675]}},{"type":"Feature","properties":{"title":"Hotel Bayrischer Hof","short":"Appartement: ab 98 €, Wochenendpreise: Einzelzimmer ab 60 € / Doppelzimmer ab 80 €, ","cat1":"Hotel","cat2":"ab 50 Euro","street":"Hansastraße 105","zip":"47798","city":"Krefeld","region":"Innenstadt","tel":"0 21 51 / 82 07 78-0","mail":"info@bayrischer-hof-krefeld.de","features":["Appartement","Zimmer mit Bad/WC","Zimmer mit Dusche/WC","Garage","Haustiere erlaubt","Konferenzzimmer","Lift","Minibar","W-Lan","Zimmerfernsehen"],"beds":40,"lat":51.326583,"lng":6.567937},"geometry":{"type":"Point","coordinates":[6.567937,51.326583]}},{"type":"Feature","properties":{"title":"Hotel garni Westend","cat1":["Gastronomie","Hotel"],"cat2":"ab 28 Euro","street":"Sankt-Töniser-Straße 173","zip":"47804","city":"Krefeld","region":"Innenstadt","tel":"0 21 51 / 71 39 67","mail":"info@hotel-garni-westend.com","features":["Zimmer mit Dusche/WC","Etagenbäder","Haustiere (auf Anfrage)","Lift","Restaurant","W-Lan","Zimmerfernsehen"],"beds":26,"lat":51.328774,"lng":6.534888},"geometry":{"type":"Point","coordinates":[6.534888,51.328774]}},{"type":"Feature","properties":{"title":"Hotel Imperial","short":"Wochenendpreise: Einzelzimmer ab 55 €, Doppelzimmerab 70 €","cat1":"Hotel","cat2":"ab 50 Euro","street":"Bahnhofstraße 60 a","zip":"47829","city":"Krefeld","region":"Uerdingen","tel":"0 21 51 / 4 92 80","mail":"info@imperialhotel.de","features":["Zimmer mit Bad/WC","Zimmer mit Dusche/WC","Garage","Haustiere erlaubt (Anmeldung erforderlich)","Lift","Parkplatz","Zimmerfernsehen"],"beds":42,"lat":51.357117,"lng":6.647505},"geometry":{"type":"Point","coordinates":[6.647505,51.357117]}},{"type":"Feature","properties":{"title":"Hotel Jägerhof","short":"Dreibettzimmer: 65,00 bis 75,00 Euro; Haustiere erlaubt","cat1":"Hotel","cat2":"ab 28 Euro","street":"Steckendorferstraße 114 - 116","zip":"47798","city":"Krefeld","region":"Innenstadt","tel":"0 21 51 / 61 47 64","features":["Zimmer mit Bad/WC","Zimmer mit Dusche/WC","Etagenbäder","Garten","Parkplatz","Radio","Zimmerfernsehen","Zimmertelefon"],"beds":25,"lat":51.339017,"lng":6.564784},"geometry":{"type":"Point","coordinates":[6.564784,51.339017]}},{"type":"Feature","properties":{"title":"Hotel Ristorante Villa Medici","cat1":["Gastronomie","Hotel"],"cat2":"ab 50 Euro","street":"Schönwasserstraße 73","zip":"47800 ","city":"Krefeld","region":"Bockum","tel":"0 21 51 / 5 06 60","mail":"info@villa-medici-krefeld.de","features":["Zimmer mit Bad/WC","Zimmer mit Dusche/WC","Garage","Garten","Gartenrestaurant","Haustiere bei Vorankündigung erlaubt","Restaurant (sonntags geschlossen)","W-Lan","Zimmerfernsehen"],"beds":17,"lat":51.340048,"lng":6.597399},"geometry":{"type":"Point","coordinates":[6.597399,51.340048]}},{"type":"Feature","properties":{"title":"Hotel Wilma","short":"Appartement monatlich, Rezeption montags bis samstags von 8 bis 21 Uhr geöffnet, sonn- und feiertags von 18 bis 20 Uhr","cat1":"Hotel","cat2":"ab 50 Euro","street":"Oststraße 10","zip":"47798","city":"Krefeld","region":"Innenstadt","tel":"0 21 51 / 8 58 66-0","mail":"hotel-wilma@t-online.de","features":["Appartement","Zimmer mit Bad/WC","Zimmer mit Dusche/WC","Etagenbäder","Garten","Hotspot kostenlos","Konferenzzimmer","Minibar","Zimmerfernsehen"],"beds":35,"lat":51.339008,"lng":6.56265},"geometry":{"type":"Point","coordinates":[6.56265,51.339008]}},{"type":"Feature","properties":{"title":"Hülser Bergschänke","cat1":"Gastronomie","street":"Am Rennstieg 1","zip":"47839","city":"Krefeld","region":"Hüls","tel":"0 21 51 / 56 88 41","mail":"info@huelser-bergschaenke.de","lat":51.388077,"lng":6.537296},"geometry":{"type":"Point","coordinates":[6.537296,51.388077]}},{"type":"Feature","properties":{"title":"ibis budget Krefeld - Messe-Düsseldorf","cat1":"Hotel","cat2":"ab 28 Euro","street":"Hansastraße 28-30","zip":"47798","city":"Krefeld","region":"Innenstadt","tel":"0 21 51 / 6 28 96 20","features":["Barrierefrei","Zimmer mit Dusche/WC","Garage","Lift","Parkplatz (kostenpflichtig)","W-Lan","Zimmerfernsehen"],"beds":262,"lat":51.327274,"lng":6.572396},"geometry":{"type":"Point","coordinates":[6.572396,51.327274]}},{"type":"Feature","properties":{"title":"Kirschkamperhof","short":"Preise (ausschließlich Mehrbettzimmer): 75 € pro Person/2 Übernachtungen für Klassenfahrt oder Konfirmanden-Wochenende, 190 € pro Person/Woche für Ferien-Camp","cat1":["Hotel","Gruppenunterkunft"],"cat2":"ab 50 Euro","street":"Luiter Weg 238","zip":"47802","city":"Krefeld","region":"Traar","tel":"0 21 51 / 96 69 96","mail":"info@kirschkamperhof.de","beds":130,"lat":51.388742,"lng":6.575203},"geometry":{"type":"Point","coordinates":[6.575203,51.388742]}},{"type":"Feature","properties":{"title":"Klarsicht Bistrorant","cat1":"Gastronomie","street":"Moerser Straße 79","zip":"47799","city":"Krefeld","region":"Innenstadt","tel":"0 21 51 / 56 64 55 ","mail":"info@klarsicht-restaurant.de","lat":51.340788,"lng":6.568577},"geometry":{"type":"Point","coordinates":[6.568577,51.340788]}},{"type":"Feature","properties":{"title":"Krefelder Stadtmarkt am Behnisch Haus","cat1":"Gastronomie","street":"Petersstraße ","zip":"47798","city":"Krefeld","region":"Innenstadt","mail":"info@krefelder-stadtmarkt.de","lat":51.331974,"lng":6.564934},"geometry":{"type":"Point","coordinates":[6.564934,51.331974]}},{"type":"Feature","properties":{"title":"La Romantica","cat1":"Gastronomie","street":"Carl-Wilhelm-Straße 27","zip":"47798","city":"Krefeld","region":"Innenstadt","tel":"0 21 51 / 80 06 09","mail":"info@laromantica.info","lat":51.334581,"lng":6.560969},"geometry":{"type":"Point","coordinates":[6.560969,51.334581]}},{"type":"Feature","properties":{"title":"Mercure Parkhotel Krefelder Hof ****Superior","short":"Suiten: (Einzel) ab 169 € / (Doppel) ab 189 €, Wochenenderrangement, Haustiere erlaubt (10 € pro Tag), Zimmerpreise verstehen sich zuzüglich Frühstück","cat1":["Gastronomie","Hotel"],"cat2":"ab 50 Euro","street":"Uerdinger Straße 245","zip":"47800","city":"Krefeld","region":"Bockum","tel":"0 21 51 / 58 40","mail":"h5404@accor.com","features":["Zimmer mit Bad/WC","Zimmer mit Dusche/WC","Fitnessraum","Garage","Garten","Hallenbad","Konferenzzimmer","Lift","Mini-Bar","Parkplatz","Parkterasse","Restaurant-Brasserie \"La Provence\"","Sauna","Zimmerfernsehen"],"beds":202,"lat":51.337847,"lng":6.589058},"geometry":{"type":"Point","coordinates":[6.589058,51.337847]}},{"type":"Feature","properties":{"title":"Mercure Tagungs- und Landhotel Krefeld **** Superior","short":"Wochenendpreise für Einzel- und Doppelzimmer auf Anfrage, Haustiere erlaubt!","cat1":["Gastronomie","Hotel"],"cat2":"ab 50 Euro","street":"Elfrather Weg 5","zip":"47802","city":"Krefeld","region":"Traar","tel":"0 21 51 / 95 60","mail":"h5402@accor.com","features":["Zimmer mit Bad/WC","Zimmer mit Dusche/WC","Barierefrei","Bankettmöglichkeit","Eventwiese","Garage","Garten","Gartenterasse","Grillplatz","Fahrradverleihstation","Konferenzzimmer","Lift","Mini-Bar","Parkplatz","Restaurant","Radio","Zimmerfernsehen"],"beds":283,"lat":51.38443,"lng":6.605756},"geometry":{"type":"Point","coordinates":[6.605756,51.38443]}},{"type":"Feature","properties":{"title":"Museumscafé Linn","cat1":"Gastronomie","street":"Rheinbabenstraße 85","zip":"47809","city":"Krefeld","region":"Linn","tel":"0 21 51 / 48 14 82","mail":"info@museumscafe-linn.de","lat":51.33469,"lng":6.635595},"geometry":{"type":"Point","coordinates":[6.635595,51.33469]}},{"type":"Feature","properties":{"title":"Nadines Ferienwohnung","cat1":["Hotel","Gästehaus"],"cat2":"ab 50 Euro","street":"Hülser Straße 467","zip":"47803","city":"Krefeld","tel":"0173 / 7 46 21 58","mail":"info@nadinesferienwohnung.de","features":"Ferienwohnung","beds":10,"lat":51.352499,"lng":6.537273},"geometry":{"type":"Point","coordinates":[6.537273,51.352499]}},{"type":"Feature","properties":{"title":"Op de Trapp","cat1":"Gastronomie","street":"Rheinbabenstraße 109","zip":"47809","city":"Krefeld","region":"Linn","tel":"0 21 51 / 5 31 53 73","mail":"stringas@opdetrapp.de","lat":51.334805,"lng":6.637604},"geometry":{"type":"Point","coordinates":[6.637604,51.334805]}},{"type":"Feature","properties":{"title":"Restaurant Chopelin","cat1":"Gastronomie","street":"Casinogasse 1","zip":"47829","city":"Krefeld","region":"Uerdingen","tel":"0 21 51 / 31 17 89","mail":" info@chopelin.de","lat":51.353134,"lng":6.652219},"geometry":{"type":"Point","coordinates":[6.652219,51.353134]}},{"type":"Feature","properties":{"title":"Restaurant Derby","cat1":"Gastronomie","street":"An der Rennbahn 4","zip":"47800","city":"Krefeld","region":"Bockum","tel":"0 21 51 / 59 84 51 ","mail":"info@krefelder-rennbahn.de","lat":51.357977,"lng":6.586246},"geometry":{"type":"Point","coordinates":[6.586246,51.357977]}},{"type":"Feature","properties":{"title":"Restaurant Küferei","cat1":"Gastronomie","street":"Dujardinstraße 7","zip":"47829","city":"Krefeld","region":"Uerdingen","tel":"0 21 51 / 96 68 45 ","mail":"kueferei@gmx.de","lat":51.357062,"lng":6.650105},"geometry":{"type":"Point","coordinates":[6.650105,51.357062]}},{"type":"Feature","properties":{"title":"Restaurant Nordbahnhof","cat1":"Gastronomie","street":"Oranierring 91","zip":"47798","city":"Krefeld","region":"Innenstadt","tel":"0 21 51 / 6 74 44\r\n","mail":"furth@nordbahnhof-krefeld.de","lat":51.339197,"lng":6.552542},"geometry":{"type":"Point","coordinates":[6.552542,51.339197]}},{"type":"Feature","properties":{"title":"Restaurant Stars","cat1":"Gastronomie","street":"Uerdinger Straße 224","zip":"47800","city":"Krefeld","region":"Bockum","tel":"0 21 51 / 59 01 71","lat":51.338591,"lng":6.586046},"geometry":{"type":"Point","coordinates":[6.586046,51.338591]}},{"type":"Feature","properties":{"title":"Restaurant & Bar Hexagon im Seidenweberhaus","cat1":"Gastronomie","street":"Theaerplatz 1","zip":"47798 ","city":"Krefeld","region":"Innenstadt","tel":"0 21 51 / 2 10 94","mail":"mail@hexagon-krefeld.de","lat":51.33457,"lng":6.563653},"geometry":{"type":"Point","coordinates":[6.563653,51.33457]}},{"type":"Feature","properties":{"title":"Ristorante Bellini","cat1":"Gastronomie","street":"Dießemer Straße 80","zip":"47799","city":"Krefeld","region":"Innenstadt","tel":"0 21 51 / 80 26 54 ","lat":51.332294,"lng":6.57695},"geometry":{"type":"Point","coordinates":[6.57695,51.332294]}},{"type":"Feature","properties":{"title":"Ristorante I due","cat1":"Gastronomie","street":"Hüttenallee 106","zip":"47800","city":"Krefeld","region":"Bockum","tel":"0 21 51 / 9 92 71","mail":"info@i-due.de","lat":51.351094,"lng":6.587043},"geometry":{"type":"Point","coordinates":[6.587043,51.351094]}},{"type":"Feature","properties":{"title":"Ristorante Piazza Sorrento","cat1":"Gastronomie","street":"Petersstraße 143","zip":"47798","city":"Krefeld","region":"Innenstadt","tel":"0 21 51 / 6 03 80 23","mail":"info@piazza-sorrento.de","lat":51.332806,"lng":6.564927},"geometry":{"type":"Point","coordinates":[6.564927,51.332806]}},{"type":"Feature","properties":{"title":"Ristorante Santa Lucia","cat1":"Gastronomie","street":"Konventstraße 1","zip":"47839","city":"Krefeld","region":"Hüls","tel":"0 21 51 / 73 36 27","mail":"santoriello@web.de","lat":51.373293,"lng":6.509559},"geometry":{"type":"Point","coordinates":[6.509559,51.373293]}},{"type":"Feature","properties":{"title":"Sausalitos","cat1":"Gastronomie","street":"Petersstraße 145","zip":"47798","city":"Krefeld","region":"Innenstadt","tel":"0 21 51 / 6 58 11 40","lat":51.332921,"lng":6.565016},"geometry":{"type":"Point","coordinates":[6.565016,51.332921]}},{"type":"Feature","properties":{"title":"Schlösser Steak & Seafood","cat1":"Gastronomie","street":"Petersstraße 122","zip":"47798","city":"Krefeld","region":"Innenstadt","tel":"0 21 51 / 6 53 55 66","mail":"info@restaurant-schloesser.de","lat":51.331909,"lng":6.564951},"geometry":{"type":"Point","coordinates":[6.564951,51.331909]}},{"type":"Feature","properties":{"title":"Stadtwaldhaus Krefeld","cat1":"Gastronomie","street":"Hüttenallee 108","zip":"47800 ","city":"Krefeld","region":"Bockum","tel":"0 21 51 / 59 37 84 ","mail":"info@stadtwaldhaus.de","lat":51.352238,"lng":6.585741},"geometry":{"type":"Point","coordinates":[6.585741,51.352238]}},{"type":"Feature","properties":{"title":"Sylter Eiscafé","cat1":"Gastronomie","street":"Kölner Straße 574","zip":"47807","city":"Krefeld","region":"Fischeln","tel":"0 21 51 / 9 49 96 60 ","mail":"fischeln@sylter-eiscafe.de","lat":51.303401,"lng":6.589759},"geometry":{"type":"Point","coordinates":[6.589759,51.303401]}},{"type":"Feature","properties":{"title":"TRYP Düsseldorf-Krefeld *** Superior","cat1":["Gastronomie","Hotel"],"cat2":"ab 50 Euro","street":"Europark Fichtenhain A 1","zip":"47807","city":"Krefeld","region":"Fischeln","tel":"0 21 51 / 83 60","mail":"tryp.krefeld@melia.com ","features":["Zimmer mit Dusche/WC","Bankettmöglichkeiten","Bar","Garten","Konferenzzimmer","Lift","Minibar","Parkplatz","Radio","Restaurant","Sauna","Solarium","Terasse","W-LAN bis 100 MB kostenlos","Zimmerfernsehen"],"beds":198,"lat":51.295162,"lng":6.556173},"geometry":{"type":"Point","coordinates":[6.556173,51.295162]}},{"type":"Feature","properties":{"title":"Vapiano","cat1":"Gastronomie","street":"Petersstraße 120","zip":"47798","city":"Krefeld","region":"Innenstadt","tel":"0 21 51 / 1 54 99 78","mail":"krefeld1@vapiano.de","lat":51.331909,"lng":6.564951},"geometry":{"type":"Point","coordinates":[6.564951,51.331909]}},{"type":"Feature","properties":{"title":"Verberger Gästehaus","cat1":["Hotel","Ferienzimmer"],"cat2":"ab 50 Euro","street":"Am Flohbusch 85","zip":"47802","city":"Krefeld","region":"Verberg","tel":"0 21 51 / 56 34 14","mail":"verbergergaestehaus@gmx.de","features":["Zimmer mit Dusche/WC","Garten","Haustiere erlaubt","Parkplatz","WLAN","Zimmerfernsehen"],"beds":8,"lat":51.360207,"lng":6.577132},"geometry":{"type":"Point","coordinates":[6.577132,51.360207]}},{"type":"Feature","properties":{"title":"Vivere ad parcum - Bed and Breakfast","cat1":["Hotel","Gästehaus"],"cat2":"ab 50 Euro","street":"Johansenaue 146 a ","zip":"47809","city":"Krefeld","region":"Oppum","tel":"0 21 51 / 61 88 26 ","mail":"info@vedalanka.de","features":["Zimmer mit Bad/WC","Zimmer mit Dusche/WC","Barrierefrei","Gartem","Zimmerfernsehen","WLAN"],"beds":4,"lat":51.336567,"lng":6.612473},"geometry":{"type":"Point","coordinates":[6.612473,51.336567]}},{"type":"Feature","properties":{"title":"Winkmannshof","cat1":"Gastronomie","street":"Albert-Steeger-Straße 9","zip":"47809","city":"Krefeld","region":"Linn","tel":"0 21 51 / 7 84 56 70","mail":"info@winkmannshof.com","lat":51.334466,"lng":6.636818},"geometry":{"type":"Point","coordinates":[6.636818,51.334466]}},{"type":"Feature","properties":{"title":"Zentral Hotel Poststuben","short":"Wochenendpreise erfragen!","cat1":"Hotel","cat2":"ab 50 Euro","street":"Dampfmühlenweg 58","zip":"47799","city":"Krefeld","region":"Innenstadt","tel":"0 21 51 / 7 59 02 03","mail":"zentralhotelpoststuben@hotmail.com","features":["Zimmer mit Dusche/WC","Garage","Zimmerfernsehen","W-Lan"],"beds":15,"lat":51.335485,"lng":6.565707},"geometry":{"type":"Point","coordinates":[6.565707,51.335485]}},{"type":"Feature","properties":{"title":"Zum Piefedeckel","cat1":"Gastronomie","street":"Sankt-Anton-Straße 82","zip":"47798","city":"Krefeld","region":"Innenstadt","tel":"0 21 51 / 36 38 34 \r\n","mail":"info@zum-piefedeckel.de","lat":51.332903,"lng":6.558172},"geometry":{"type":"Point","coordinates":[6.558172,51.332903]}}]}