{"type":"FeatureCollection","features":[{"type":"Feature","properties":{"title":"Evangelische Kindertageseinrichtung Arche Noah","description":"","cat1":"Süd","cat2":"Kinder ab 2 Jahre","cat3":"Evangelische Kindertageseinrichtungen","street":"Märklinstraße 2","zip":"47805","city":"Krefeld","region":"Dießem-Lehmheide","state":"NRW","tel":"0 21 51 / 31 52 20","mail":"kg.maerklinstr@t-online.de","web":"http://www.gemeindeverband-krefeld.de/kita-maerklinstrasse.html","text1":"Straßenbahnlinie 041, Haltestelle \"Martinstraße\"","text2":"montags bis donnerstags: 07.15 bis 16.30 Uhr; freitags: 07.15 bis 16.00 Uhr","text3":"","text4":"Plätze für Kinder im Alter von  zwei Jahren bis zum Schuleintritt","text5":"Evangelischer Gemeindeverband Krefeld","text6":"35 und 45 Wochenstunden","text7":"","text8":"35 und 45 Wochenstunden","text9":"","lat":51.318888,"lng":6.563161},"geometry":{"type":"Point","coordinates":[6.563161,51.318888]}},{"type":"Feature","properties":{"title":"Evangelische Kindertageseinrichtung Dülkener Straße / Familienzentrum","description":"Bewegungskindergarten.\r\n\r\n","cat1":"West","cat2":"Kinder ab 2 Jahre","cat3":"Evangelische Kindertageseinrichtungen","street":"Dülkener Straße 10","zip":"47804","city":"Krefeld","region":"Benrad - Süd","tel":"0 21 51 / 71 25 10","mail":"swm@ev-kita-lindental.de","web":"www.ev-kita-lindental.de","text1":"Buslinie 051, Haltestelle \"Heimatplan\"","text2":"montags bis donnerstags: 07.00 bis 16.15 Uhr; freitags 07.00 bis 15.00 Uhr","text3":"","text4":"Plätze für Kinder im Alter von zwei Jahren bis zur Einschulung","text5":"Evangelischer Gemeindeverband Krefeld","text6":"45 Wochenstunden","text7":"","text8":"35 und 45 Wochenstunden","text9":"","lat":51.320928,"lng":6.530958},"geometry":{"type":"Point","coordinates":[6.530958,51.320928]}},{"type":"Feature","properties":{"title":"Evangelische Kindertageseinrichtung Germaniastraße / Familienzentrum","description":"Familienzentrum","cat1":"Ost","cat2":"Kinder ab 2 Jahre","cat3":"Evangelische Kindertageseinrichtungen","street":"Germaniastraße 135","zip":"47800","city":"Krefeld","region":"Bockum","state":"NRW","tel":"0 21 51 / 59 14 36","mail":"info@kita-bockum.de","web":"www.kita-bockum.de.","text1":"Sraßenbahnlinie 043 und 044, Haltestelle 'Kaiserstraße' oder 'Grotenburg / Zoo'","text2":"montags bis donnerstags: 07.00 bis 16.30 Uhr; freitags 07.00 bis 14.30 Uhr","text3":"","text4":"Plätze für Kinder von 2 Jahren bis zum Schuleintritt","text5":"Evangelischer Gemeindeverband Krefeld ","text6":"35 und 45 Wochenstunden","text7":"","text8":"35 und 45 Wochenstunden","text9":"","lat":51.341538,"lng":6.593731},"geometry":{"type":"Point","coordinates":[6.593731,51.341538]}},{"type":"Feature","properties":{"title":"Evangelische Kindertageseinrichtung Kastanienstraße","description":"","cat1":"Uerdingen und Gellep-Stratum","cat2":"Kinder ab 2 Jahre","cat3":"Evangelische Kindertageseinrichtungen","street":"Kastanienstraße 95","zip":"47829","city":"Krefeld","region":"Uerdingen","state":"NRW","tel":"0 21 51 / 47 63 68","mail":"info@uerdingen-evangelisch.de","web":"www.uerdingen-evangelisch.de","text1":"Buslinie 058, Haltestelle \"Körnerstraße\"","text2":"montags bis freitags: 07.00 bis 16.00 Uhr","text3":"","text4":"Plätze für Kinder im Alter von  2 Jahren bis zur Einschulung","text5":"Evangelischer Gemeindeverband Krefeld","text6":"35 und 45 Wochenstunden","text7":"","text8":"35 und 45 Wochenstunden","text9":"","lat":51.36175,"lng":6.642106},"geometry":{"type":"Point","coordinates":[6.642106,51.36175]}},{"type":"Feature","properties":{"title":"Evangelische Kindertageseinrichtung Kölner Straße / Familienzentrum","description":"Integrative Kindertageseinrichtung: Gemeinsame Betreuung, Erziehung und Förderung von behinderten und nicht behinderten Kindern im Alter ab drei Jahren; Familienzentrum;","cat1":"Fischeln","cat2":["Kinder ab 2 Jahre","integrativ"],"cat3":"Evangelische Kindertageseinrichtungen","street":"Kölner Straße 480","zip":"47807","city":"Krefeld","region":"Fischeln","state":"NRW","tel":"0 21 51 / 30 08 41","mail":"kita-markuskirche@t-online.de","web":"www.ev-integrative-kita-markuskirche.de","text1":"Straßenbahnlinie 041, Haltestelle \"Rathaus /  Stadtpark Fischeln\"","text2":"montags bis donnerstags: 07.00 bis 16.30 Uhr; freitags: 07.00 bis 15.15 Uhr","text3":"","text4":"Plätze für Kinder im Alter von 2 Jahren bis zur Einschulung","text5":"Evangelischer Gemeindeverband Krefeld","text6":"35 und 45 Wochenstunden","text7":"","text8":"35 und 45 Wochenstunden","text9":"45 Wochenstunden","lat":51.307702,"lng":6.587316},"geometry":{"type":"Point","coordinates":[6.587316,51.307702]}},{"type":"Feature","properties":{"title":"Evangelische Kindertageseinrichtung Thielenstraße","description":"","cat1":"Oppum und Linn","cat2":"Kinder ab 2 Jahre","cat3":"Evangelische Kindertageseinrichtungen","street":"Thielenstraße 29","zip":"47809","city":"Krefeld","region":"Oppum","state":"NRW","tel":"0 21 51 / 54 47 92","mail":"kindergarten.thielenstrasse@t-online.de","web":"www.ev-kita-thielenstrasse.de","text1":"Buslinie 047 / 052 / 057; Straßenbahnlinie 044 Haltestelle \"Oppum Bahnhof\"","text2":"montags bis donnerstags. 07.15 bis 16.30 Uhr; freitags: 07.15 bis 15.15 Uhr","text3":"","text4":"Plätze für Kinder im Alter von zwei Jahren bis zur Einschulung","text5":"Evangelischer Gemeindeverband Krefeld","text6":"45  Wochenstunden","text7":"","text8":"35 Wochenstunden","text9":"","lat":51.3309,"lng":6.609885},"geometry":{"type":"Point","coordinates":[6.609885,51.3309]}},{"type":"Feature","properties":{"title":"Evangelische Kindertageseinrichtung \"Lukashaus der kleinen Füße\"","cat1":"Ost","cat2":"Kinder ab 2 Jahre","cat3":"Evangelische Kindertageseinrichtungen","street":"Breslauer Straße 10","zip":"47829","city":"Krefeld","region":"Gartenstadt","state":"NRW","tel":"0 21 51 / 4 27 72","mail":"lukashaus@t-online.de","text1":"Straßenbahnlinie 042, Haltestelle \"Traarer Straße\";\r\nBuslinie 058/059, Haltestelle \"Stettiner Straße\"","text2":"montags bis donnerstags: 07.15 bis 16.30 Uhr; freitags: 07.15 bis 15.15 Uhr","text3":"","text4":"Plätze für Kinder im Alter von 2 Jahren bis zur Einschulung","text5":"evangelischer  Gemeindeverband Krefeld","text6":"35 und 45 Wochenstunden","text7":"","text8":"35 und 45 Wochenstunden","text9":"","lat":51.367185,"lng":6.620401},"geometry":{"type":"Point","coordinates":[6.620401,51.367185]}},{"type":"Feature","properties":{"title":"Familienzentrum Mumm-Kids","description":"Familienzentrum","cat1":"West","cat2":"Kinder ab 2 Jahre","cat3":"Kindertageseinrichtungen Freier Träger","street":"Dreikönigenstraße 147 - 149","zip":"47798","city":"Krefeld","region":"Stadtmitte","state":"NRW","tel":"0 21 51 / 77 82 95","mail":"mumm-kids@mumm-mg.de","web":"www.mumm-mg.de","text1":"Buslinie  050 / 051 , Haltestelle \"Karlsplatz\"","text2":"montags bis donnerstags: 07.30 bis 17.00 Uhr; freitags: 7.30 bis 14.30 Uhr","text3":"","text4":"Plätze für Kinder im Alter von zwei Jahren bis zur Einschulung","text5":"MUMM Familienservice gGmbH","text6":"45  Wochenstunden","text7":"","text8":"45 Wochenstunden","text9":"","lat":51.328445,"lng":6.557768},"geometry":{"type":"Point","coordinates":[6.557768,51.328445]}},{"type":"Feature","properties":{"title":"Inklusive Kindertagesstätte im  stups-KINDERZENTRUM","description":"Integrative Kindertageseinrichtung\r\n\r\n","cat1":"Fischeln","cat2":["Kinder ab 2 Jahre","integrativ"],"cat3":"Kindertageseinrichtungen Freier Träger","street":"Jakob - Lintzen - Str. 8","zip":"47807","city":"Krefeld","region":"Fischeln","tel":"73 76 507 ","mail":"stups@drk-schwesternschaft-kr.de","web":"www.drk-schwesternschaft-kr.de","text1":"Straßenbahn 041 bis Haltestellen \"Königshof\" oder \"Von-Ketteler-Str.\"","text2":"montags bis freitags: 7.30 bis 16.30 Uhr","text3":"","text4":"","text5":"","text6":"45 Wochenstunden","text7":"","text8":"45 Wochenstunden","text9":"45 Wochenstunden","lat":51.313745,"lng":6.577923},"geometry":{"type":"Point","coordinates":[6.577923,51.313745]}},{"type":"Feature","properties":{"title":"Katholische Kindertageseinrichtung  Maria Himmelfahrt / Familienzentrum","description":"Katholisches Familienzentrum Linn: im Verbund mit der Katholischen Kindertageseinrichtung Sankt Margareta","cat1":"Oppum und Linn","cat2":"Kinder ab 4 Monate","cat3":"Katholische Kindertageseinrichtungen","street":"Königsberger Straße 90","zip":"47809","city":"Krefeld","region":"Linn","state":"NRW","tel":"0 21 51 / 57 06 40","mail":"fz-linn@arcor.de","web":"www.familienzentrum-linn.de","text1":"Buslinie 059, Haltestelle \"Königsberger Straße\"","text2":"montags bis donnerstags: 07.00 Uhr bis 16.30 Uhr; freitags: 07.00 bis 14.30 Uhr","text3":"","text4":"Plätze für Kinder im Alter von vier Monaten bis zum Schuleintritt","text5":"Kirchengemeinde und Pfarrei Sankt Nikolaus","text6":"45 Wochenstunden","text7":"45 Wochenstunden","text8":"35 und 45 Wochenstunden","text9":"","lat":51.341902,"lng":6.642579},"geometry":{"type":"Point","coordinates":[6.642579,51.341902]}},{"type":"Feature","properties":{"title":"Katholische Kindertageseinrichtung Heiliger Schutzengel / Montessori-Kinderhaus","description":"Die Betreuung und Erziehung wird nach den pädagogischen Grundlagen Maria Montessoris vorgenommen.","cat1":"Oppum und Linn","cat2":"Kinder ab 2 Jahre","cat3":"Katholische Kindertageseinrichtungen","street":"Hauptstraße 10","zip":"47809","city":"Krefeld","region":"Oppum","state":"NRW","tel":"0 21 51 / 55 85 60","mail":"kita@montessori-kinderhaus-oppum.de","web":"www.montessori-kinderhaus-oppum.de","text1":"Buslinie 057, Haltestelle \"Oppum Bahnhof\"; Buslinie 052, Haltestelle \"Korekamp\"","text2":"montags bis freitags: 07.00 bis 16.30 Uhr","text3":"","text4":"Plätze für Kinder im Alter von zwei Jahren bis zur Einschulung","text5":"Katholischer Kirchengemeindeverband Krefeld - Süd","text6":"35 und 45 Wochenstunden","text7":"","text8":"35 und 45 Wochenstunden","text9":"","lat":51.329489,"lng":6.612504},"geometry":{"type":"Point","coordinates":[6.612504,51.329489]}},{"type":"Feature","properties":{"title":"Katholische Kindertageseinrichtung Herz-Jesu","description":"Integrative Kindertageseinrichtung: Gemeinsame Betreuung, Erziehung und Förderung von behinderten und nicht behinderten Kindern ab drei Jahren.","cat1":"Ost","cat2":["Kinder ab 2 Jahre","integrativ"],"cat3":"Katholische Kindertageseinrichtungen","street":"Friedrich-Ebert-Straße 166","zip":"47800","city":"Krefeld","region":"Bockum","state":"NRW","tel":"0 21 51 / 5807076","mail":"kita-herz-jesu@st-christophorus-krefeld.de","web":"kita-herz-jesu.kibac.de","text1":"Busline 927, Haltestelle  \"Am Kaiserplatz\"; Straßenbahnlinie 042 und 043, Haltestelle  \" Grotenburg / Zoo\"","text2":"montags bis freitags: 07.00 bis 16.30 Uhr","text3":"","text4":"Plätze für Kinder im Alter von zwei Jahren bis zur Einschulung","text5":"Katholische Kirchengemeinde Sankt Christophorus","text6":"35 und 45 Wochenstunden","text7":"","text8":"35 und 45 Wochenstunden","text9":"45 Wochenstunden","lat":51.345145,"lng":6.591669},"geometry":{"type":"Point","coordinates":[6.591669,51.345145]}},{"type":"Feature","properties":{"title":"Katholische Kindertageseinrichtung im Marianum","description":"","cat1":"Mitte","cat2":"Kinder ab 3 Jahre","cat3":"Katholische Kindertageseinrichtungen","street":"Hubertusstraße 226","zip":"47798","city":"Krefeld","region":"Stadtmitte","state":"NRW","tel":"0 21 51 / 80 78 43","mail":"info@marianum-krefeld.de","web":"www.marianum-krefeld.de","text1":"Buslinie 057, Haltestelle \"Hubertusstraße\"","text2":"montags bis donnerstags: 07.30 bis 16.00 Uhr; freitags: 07.30 bis 12.30 Uhr","text3":"","text4":"Plätze für Kinder im Alter von drei Jahren bis zum Schuleintritt","text5":"Stiftung Katholische Armenverwaltung Krefeld","text6":"","text7":"","text8":"35 Wochenstunden","text9":"","lat":51.337005,"lng":6.553932},"geometry":{"type":"Point","coordinates":[6.553932,51.337005]}},{"type":"Feature","properties":{"title":"Katholische Kindertageseinrichtung Liebfrauen / Familienzentrum","description":"","cat1":"Mitte","cat2":"Kinder ab 4 Monate","cat3":"Katholische Kindertageseinrichtungen","street":"Geldernsche Straße 97","zip":"47798","city":"Krefeld","region":"Stadtmitte","state":"NRW","tel":"0 21 51 / 2 43 58","mail":"info@kita-liebfrauen.de","web":"www.kita-liebfrauen.de","text1":"Straßenbahnlinie 044/ Buslinie 069, Haltestelle \"Sternstraße/Drießendorfer Straße\"","text2":"montags bis donnerstags: 07.00 bis 16.30 Uhr; freitags: 07.00 Uhr bis 15.45 Uhr","text3":"","text4":"Plätze für Kinder im Alter von vier Monaten bis zur Einschulung","text5":"Katholischer Kirchengemeindeverband Krefeld-Mitte","text6":"45 Wochenstunden","text7":"45 Wochenstunden","text8":"35 und 45 Wochenstunden","text9":"","lat":51.340752,"lng":6.555967},"geometry":{"type":"Point","coordinates":[6.555967,51.340752]}},{"type":"Feature","properties":{"title":"Katholische Kindertageseinrichtung Maria Waldrast","description":"","cat1":"West","cat2":"Kinder ab 2 Jahre","cat3":"Katholische Kindertageseinrichtungen","street":"Hermann-Schumacher-Straße 50","zip":"47804","city":"Krefeld","region":"Forstwald","state":"NRW","tel":"0 21 51 / 39 77 98","mail":"ktst.mariawaldrast@gmx.de","web":"http://kgv-krefeld-sued.kibac.de/tageseinrichtungen-fuer-kinder/kita-maria-waldrast","text1":"Buslinie 051,  Haltestelle  \"Zu Maria Waldrast\" ;  Zug,  Haltestelle  \"Forsthaus\"","text2":"montags bis donnerstags: 07.00 bis 16.30 Uhr; freitags: 07.00 bis 14.00 Uhr","text3":"","text4":"Plätze für Kinder im Alter von zwei Jahren bis zur Einschulung","text5":"Katholischer Kirchengemeindeverband Krefeld-Süd","text6":"35 und 45 Wochenstunden","text7":"","text8":"35 und 45 Wochenstunden","text9":"","lat":51.297759,"lng":6.50483},"geometry":{"type":"Point","coordinates":[6.50483,51.297759]}},{"type":"Feature","properties":{"title":"Katholische Kindertageseinrichtung Preußenring","description":"","cat1":"Mitte","cat2":"Kinder ab 2 Jahre","cat3":"Katholische Kindertageseinrichtungen","street":"Preußenring 113","zip":"47798","city":"Krefeld","region":"Stadtmitte","state":"NRW","tel":"0 21 51 / 80 78 44","mail":"info@marianum-krefeld.de","text1":"Buslinie 057, Haltestelle \"Hubertusstraße\"; Straßenbahnlinie 044, Haltestelle \"Oranierring\"","text2":"montags bis freitags: 07.30  bis 14.30 Uhr","text3":"","text4":"Plätze für Kinder im Alter von zwei Jahren bis zum Schuleintritt","text5":"Stiftung Katholische Armenverwaltung Krefeld","text6":"35 Wochenstunden","text7":"","text8":"","text9":"","lat":51.337519,"lng":6.552214},"geometry":{"type":"Point","coordinates":[6.552214,51.337519]}},{"type":"Feature","properties":{"title":"Katholische Kindertageseinrichtung Sankt  Elisabeth - Inrath / Familienzentrum","description":"Familienzentrum","cat1":"Nord","cat2":"Kinder ab 2 Jahre","cat3":"Katholische Kindertageseinrichtungen","street":"Inrather Straße 574","zip":"47803","city":"Krefeld","region":"Inrath-Kliedbruch","state":"NRW","tel":"0 21 51 / 75 34 65","mail":"kita@fz-stelisabeth-inrath.de","web":"www.fz-stelisabeth-inrath.de","text1":"Straßenbahnlinie 044 / Buslinie 057, Haltestelle \"Kapuzinerkloster\"","text2":"montags bis donnerstags: 07.15 bis 16.30 Uhr; freitags: 07.15 bis 15.15 Uhr","text3":"","text4":"Plätze für Kinder im Alter von zwei Jahren bis zur Einschulung","text5":"Katholischer Kirchengemeindeverband Krefeld-Nordwest","text6":"35 und 45 Wochenstunden","text7":"","text8":"35 und 45 Wochenstunden","text9":"","lat":51.356196,"lng":6.532189},"geometry":{"type":"Point","coordinates":[6.532189,51.356196]}},{"type":"Feature","properties":{"title":"Katholische Kindertageseinrichtung Sankt Andreas","description":"","cat1":"Uerdingen und Gellep-Stratum","cat2":"Kinder ab 3 Jahre","cat3":"Katholische Kindertageseinrichtungen","street":"Legionstraße 40","zip":"47809","city":"Krefeld","region":"Gellep-Stratum","state":"NRW","tel":"0 21 51 / 57 09 35","mail":"kita-st-andreas-stratum@t-online.de","text1":"Buslinie 831, Haltestelle \"Stratum\"; Buslinie 047, Haltestelle \"Gellep-Kirche\"","text2":"montags bis donnerstags: 07.15 bis 15.15 Uhr; freitags: 07.15 bis 14.00 Uhr","text3":"","text4":"Plätze für Kinder im Alter von drei Jahren bis zum Schuleintritt","text5":"Kirchengemeinde und Pfarrei Sankt Nikolaus","text6":"","text7":"","text8":"35 Wochenstunden","text9":"","lat":51.329184,"lng":6.673522},"geometry":{"type":"Point","coordinates":[6.673522,51.329184]}},{"type":"Feature","properties":{"title":"Katholische Kindertageseinrichtung Sankt Anna","description":"","cat1":"Nord","cat2":"Kinder ab 4 Monate","cat3":"Katholische Kindertageseinrichtungen","street":"An der Annakirche 17","zip":"47803","city":"Krefeld","region":"Inrath-Kliedbruch","state":"NRW","tel":"0 21 51 / 75 33 71","mail":"kindergarten@st-anna-krefeld.de","web":"www.st-anna-krefeld.de","text1":"Straßenbahnlinie 044,  Haltestelle \"Am Moritzplatz\"","text2":"montags bis freitags: 06.00 bis 16.30 Uhr","text3":"","text4":"Plätze für Kinder im Alter von vier Monaten bis zum Schuleintritt","text5":"Katholischer Kirchengemeindeverband Krefeld-Nordwest","text6":"25, 35 und 45 Wochenstunden","text7":"35 Wochenstunden","text8":"35 und 45 Wochenstunden","text9":"","lat":51.344264,"lng":6.554351},"geometry":{"type":"Point","coordinates":[6.554351,51.344264]}},{"type":"Feature","properties":{"title":"Katholische Kindertageseinrichtung Sankt Clemens","description":"Integrative Kindertageseinrichtung: Gemeinsame Betreuung, Erziehung und Förderung von behinderten und nicht behinderten Kindern. Montessoripädagogik;","cat1":"Fischeln","cat2":["Kinder ab 2 Jahre","integrativ"],"cat3":"Katholische Kindertageseinrichtungen","street":"Bruderschaftsweg 2","zip":"47807","city":"Krefeld","region":"Fischeln","state":"NRW","tel":"0 21 51 / 30 09 49","mail":"tfkst.clemens@web.de","web":"http://www.kgv-krefeld-sued.de/tageseinrichtungen-fuer-kinder/","text1":"Straßenbahnlinie 041, Haltestelle \"Clemensstraße\"; Buslinie 060,  Haltestelle \"Bruderschaftsweg\"","text2":"montags bis freitags: 07.30 bis 16.30 Uhr","text3":"Montessori-Pädagogik","text4":"Plätze für Kinder im Alter von  zwei Jahren bis zum Schuleintritt","text5":"Katholischer Kirchengemeindeverband Krefeld-Süd","text6":"35 und 45 Wochenstunden","text7":"","text8":"35 und 45 Wochenstunden","text9":"45 Wochenstunden","lat":51.300875,"lng":6.588466},"geometry":{"type":"Point","coordinates":[6.588466,51.300875]}},{"type":"Feature","properties":{"title":"Katholische Kindertageseinrichtung Sankt Franziskus","description":"","cat1":"Mitte","cat2":"Kinder ab 2 Jahre","cat3":"Katholische Kindertageseinrichtungen","street":"Goethestraße 94","zip":"47799","city":"Krefeld","region":"Cracau","state":"NRW","tel":"0 21 51 / 2 51 28","mail":"k_franziskusgoethe@web.de","text1":"Buslinie 060 / 052, Haltestelle \"Moerser Platz\"; Buslinie 054 / 058 / 927 Haltestelle \"Bismarckplatz\"","text2":"montags bis donnerstags: 07.00 bis 16.30 Uhr; freitags: 07.00 bis 14.00 Uhr","text3":"","text4":"Plätze für Kinder im Alter von zwei Jahren bis zum Schuleintritt","text5":"Katholischer Kirchengemeindeverband Krefeld-Mitte","text6":"35 und 45 Wochenstunden","text7":"","text8":"35 und 45 Wochenstunden","text9":"","lat":51.340685,"lng":6.570592},"geometry":{"type":"Point","coordinates":[6.570592,51.340685]}},{"type":"Feature","properties":{"title":"Katholische Kindertageseinrichtung Sankt Heinrich","description":"","cat1":"Uerdingen und Gellep-Stratum","cat2":"Kinder ab 2 Jahre","cat3":"Katholische Kindertageseinrichtungen","street":"Heinrich-Theißen-Straße 7","zip":"47829","city":"Krefeld","region":"Uerdingen","state":"NRW","tel":"0 21 51 / 5 18 37 17","mail":"kindergarten_st.heinrich@yahoo.de","text1":"Buslinie 058, Haltestelle \"Körnerstraße\"","text2":"montags bis freitags: 07.00 bis 16.00 Uhr","text3":"","text4":"Plätze für Kinder im Alter von zwei Jahren bis zur Einschulung","text5":"Kirchengemeinde und Pfarrei Sankt Nikolaus","text6":"35 und 45 Wochenstunden","text7":"","text8":"35 und 45 Wochenstunden","text9":"","lat":51.36069,"lng":6.643143},"geometry":{"type":"Point","coordinates":[6.643143,51.36069]}},{"type":"Feature","properties":{"title":"Katholische Kindertageseinrichtung Sankt Hubertus - Montessori-Kinderhaus","description":"Montessori-Kinderhaus: Die Betreuung wird nach den pädagogischen Grundlagen Maria Montessoris vorgenommen.","cat1":"Nord","cat2":"Kinder ab 2 Jahre","cat3":"Katholische Kindertageseinrichtungen","street":"Hohen Dyk 128","zip":"47803","city":"Krefeld","region":"Inrath-Kliedbruch","state":"NRW","tel":"0 21 51 / 56 15 49","mail":"info@kinderhaus-montessori.de","web":"www.kinderhaus-montessori.de","text1":"Buslinien 052 / 058  / 060, Haltestelle  \"Am Flohbusch\"","text2":"montags bis freitags: 07.30 bis 14.00 Uhr und mittwochs: 14.30 bis 17.00 Uhr","text3":"Montessori-Pädagogik","text4":"Plätze für Kinder im Alter von zwei Jahren bis zur Einschulung","text5":"Katholische Kirchengemeinde Sankt Christophorus","text6":"35 Wochenstunden","text7":"","text8":"35 Wochenstunden","text9":"","lat":51.357913,"lng":6.570732},"geometry":{"type":"Point","coordinates":[6.570732,51.357913]}},{"type":"Feature","properties":{"title":"Katholische Kindertageseinrichtung Sankt Josef","description":"'Haus der kleinen Forscher'; Schlaumäuse","cat1":"Mitte","cat2":"Kinder ab 4 Monate","cat3":"Katholische Kindertageseinrichtungen","street":"Garnstraße 56","zip":"47798","city":"Krefeld","region":"Stadtmitte","state":"NRW","tel":"0 21 51 / 64 50 12","mail":"kita-st.josef-krefeld@web.de","web":"www.kita-stjosef-krefeld.de","text1":"Buslinie 058; Haltestelle: 'Alexanderplatz'","text2":"montags bis freitags: 07.15 Uhr bis 16.30 Uhr","text3":"","text4":"Plätze für Kinder im Alter von vier Monaten bis zum Schuleintritt","text5":"Katholischer Kirchengemeindeverband Krefeld-Mitte","text6":"45 Wochenstunden","text7":"45 Wochenstunden","text8":"35 und 45 Wochenstunden","text9":"","lat":51.326186,"lng":6.560492},"geometry":{"type":"Point","coordinates":[6.560492,51.326186]}},{"type":"Feature","properties":{"title":"Katholische Kindertageseinrichtung Sankt Josef, Traar","description":"","cat1":"Ost","cat2":"Kinder ab 2 Jahre","cat3":"Katholische Kindertageseinrichtungen","street":"Am Egelsberg 29","zip":"47802","city":"Krefeld","region":"Traar","state":"NRW","tel":"0 21 51 / 56 03 09","mail":"kita.st.josef@st-christophorus-krefeld.de","web":"kindergarten-st-josef.kibac.de","text1":"Buslinie 052 / 058, Haltestelle \"Traar Rathaus\"","text2":"montags bis freitags: 07.00 bis 16.00 Uhr","text3":"","text4":"Plätze für Kinder im Alter von zwei Jahren bis zum Schuleintritt","text5":"Katholische Kirchengemeinde Sankt Christophorus","text6":"35 und 45 Wochenstunden","text7":"","text8":"","text9":"","lat":51.383959,"lng":6.599247},"geometry":{"type":"Point","coordinates":[6.599247,51.383959]}},{"type":"Feature","properties":{"title":"Katholische Kindertageseinrichtung Sankt Lioba","description":"","cat1":"Fischeln","cat2":"Kinder ab 2 Jahre","cat3":"Katholische Kindertageseinrichtungen","street":"Bonifatiusstraße 25","zip":"47807","city":"Krefeld","region":"Fischeln","state":"NRW","tel":"0 21 51 / 31 63 97 ","mail":"st.lioba-stahldorf@t-online.de","web":"http://kgv-krefeld-sued.kibac.de/tageseinrichtungen-fuer-kinder/","text1":"Buslinie 047 / 058, Haltestelle \"Limbourgplatz\" ; Straßenbahnlinie 042 / 043, Haltestelle \"Oberschlesienstraße\"","text2":"montags bis donnerstags: 07.00 bis 16.30 Uhr; freitags: 07.00 bis 14.00 Uhr","text3":"Förderung der kulturellen Integration, Bewegungs- und Spracherziehung","text4":"Plätze für Kinder im Alter von zwei Jahren bis zur Einschulung","text5":"Katholischer Kirchengemeindeverband Krefeld-Süd","text6":"35 und 45 Wochenstunden","text7":"","text8":"35 und 45 Wochenstunden","text9":"","lat":51.309022,"lng":6.557681},"geometry":{"type":"Point","coordinates":[6.557681,51.309022]}},{"type":"Feature","properties":{"title":"Katholische Kindertageseinrichtung Sankt Margareta / Familienzentrum","description":"Katholisches Familienzentrum Linn: im Verbund mit der Katholischen Kindertageseinrichtung Maria Himmelfart","cat1":"Oppum und Linn","cat2":"Kinder ab 2 Jahre","cat3":"Katholische Kindertageseinrichtungen","street":"Kirchgasse 1a","zip":"47809","city":"Krefeld","region":"Linn","state":"NRW","tel":"0 21 51 / 57 06 00","mail":"fz-linn@arcor.de","web":"www.familienzentrum-linn.de","text1":"Straßenbahnlinie 044, Haltestelle \"Linner Burg / Danziger Platz\"","text2":"montags bis donnerstags: 7.00 - 16.30 Uhr;  freitags: 07.00 bis 14.30 Uhr","text3":"","text4":"Plätze für Kinder im Alter von zwei Jahren bis zur Einschulung","text5":"Kirchengemeinde und Pfarrei Sankt Nikolaus","text6":"45 Wochenstunden","text7":"","text8":"35 und 45 Wochenstunden","text9":"","lat":51.334128,"lng":6.63922},"geometry":{"type":"Point","coordinates":[6.63922,51.334128]}},{"type":"Feature","properties":{"title":"Katholische Kindertageseinrichtung Sankt Marien","description":"","cat1":"Hüls","cat2":"Kinder ab 2 Jahre","cat3":"Katholische Kindertageseinrichtungen","street":"Herrenweg 6","zip":"47839","city":"Krefeld","region":"Hüls","state":"NRW","tel":"0 21 51 / 73 12 11","mail":"st-marien-huels@t-online.de","text1":"Straßenbahnlinie 044, Haltestelle \"Hüls Betriebshof\"; Buslinie 069, Haltestelle \"Hülser Markt\"","text2":"montags bis donnerstags: 07.00 bis 16.30 Uhr; freitags: 07.00 bis 14.00 Uhr","text3":"","text4":"Plätze für Kinder im Alter von zwei Jahren bis zum Schuleintritt","text5":"Katholischer Kirchengemeindeverband Krefeld-Nordwest","text6":"35 und 45 Wochenstunden","text7":"","text8":"35 und 45 Wochenstunden","text9":"","lat":51.374215,"lng":6.512113},"geometry":{"type":"Point","coordinates":[6.512113,51.374215]}},{"type":"Feature","properties":{"title":"Katholische Kindertageseinrichtung Sankt Martin / Familienzentrum","description":"Familienzentrum","cat1":"Süd","cat2":"Kinder ab 2 Jahre","cat3":"Katholische Kindertageseinrichtungen","street":"Ispelsstraße 69","zip":"47805","city":"Krefeld","region":"Dießem-Lehmheide","state":"NRW","tel":"0 21 51 / 39 89 01","mail":"info@kita-st-martin-krefeld.de","web":"www.kita-st-martin-krefeld.de","text1":"Straßenbahnlinie  042 /043, Haltestelle \"Martinstraße\"","text2":"montags bis freitags: 07.30 bis 16.30 Uhr","text3":"","text4":"Plätze für Kinder im Alter von zwei Jahren bis zum Schuleintritt","text5":"Katholischer Kirchengemeindeverband Krefeld-Süd","text6":"35 und 45 Wochenstunden","text7":"","text8":"35 und 45 Wochenstunden","text9":"","lat":51.318915,"lng":6.559798},"geometry":{"type":"Point","coordinates":[6.559798,51.318915]}},{"type":"Feature","properties":{"title":"Katholische Kindertageseinrichtung Sankt Nikolaus","description":"","cat1":"Uerdingen und Gellep-Stratum","cat2":"Kinder ab 4 Monate","cat3":"Katholische Kindertageseinrichtungen","street":"Burgstraße 7a","zip":"47829","city":"Krefeld","region":"Uerdingen","state":"NRW","tel":"0 21 51 / 53 15 771","mail":"info@kita-st-nikolaus-krefeld.de","web":"www.kita-st-nikolaus-krefeld.de","text1":"Straßenbahnlinie 043 / Buslinie 54, 58, 59, 831, Haltestelle \"Am Röttgen\"","text2":"montags bis donnerstags: 07.15 bis 16.30 Uhr; freitags: 07.15 bis 15.15 Uhr","text3":"","text4":"Plätze für Kinder im Alter von vier Monaten bis zum Schuleintritt","text5":"Kirchengemeinde und Pfarrei Sankt Nikolaus","text6":"35 und 45 Wochenstunden","text7":"45 Wochenstunden","text8":"45 Wochenstunden","text9":"","lat":51.353062,"lng":6.651415},"geometry":{"type":"Point","coordinates":[6.651415,51.353062]}},{"type":"Feature","properties":{"title":"Katholische Kindertageseinrichtung Sankt Norbertus / Familienzentrum","description":"","cat1":"West","cat2":"Kinder ab 3 Jahre","cat3":"Katholische Kindertageseinrichtungen","street":"Frankenring 108","zip":"47798","city":"Krefeld","region":"Stadtmitte","state":"NRW","tel":"0 21 51 / 77 28 62","mail":"kita-st.norbertus@t-online.de","web":"www.familienzentrum-krefeld-mitte.de","text1":"Straßenbahnlinie 041, Haltestelle \"Preußenring\",  Buslinie 051, Haltestelle \"Frankenring\"","text2":"montags bis freitags: 07.00 bis 16.00 Uhr","text3":"","text4":"Plätze für Kinder von drei Jahren bis zur Einschulung","text5":"Katholischer Kirchengemeindeverband Krefeld-Mitte","text6":"","text7":"","text8":"35 und 45 Wochenstunden","text9":"","lat":51.329003,"lng":6.547535},"geometry":{"type":"Point","coordinates":[6.547535,51.329003]}},{"type":"Feature","properties":{"title":"Katholische Kindertageseinrichtung Sankt Peter / Familienzentrum","description":"Integrative Kindertageseinrichtung: Gemeinsame Betreuung, Erziehung und Förderung von behinderten und nicht behinderten Kindern ab drei Jahren;Familienzentrum;","cat1":"Uerdingen und Gellep-Stratum","cat2":["Kinder ab 2 Jahre","integrativ"],"cat3":"Katholische Kindertageseinrichtungen","street":"Am Wallgarten 15","zip":"47829","city":"Krefeld","region":"Uerdingen","state":"NRW","tel":"0 21 51 / 48 13 32","mail":"familienzentrum-st.peter@t-online.de","web":"www.familienzentrum-st-peter.de/","text1":"Straßenbahn 043, Haltestelle \"Am Röttgen\"; Buslinie 059 / 941, Haltestelle \"Am Wallgarten\"","text2":"montags bis donnerstags: 07.00 bis 16.30 Uhr; freitags: 07.00 bis 14.00 Uhr","text3":"","text4":"Plätze für Kinder im Alter von zwei Jahren bis zur Einschulung","text5":"Kirchengemeinde und Pfarrei Sankt Nikolaus","text6":"45 Wochenstunden","text7":"","text8":"35 und 45 Wochenstunden","text9":"35 und 45 Wochenstunden","lat":51.351263,"lng":6.647932},"geometry":{"type":"Point","coordinates":[6.647932,51.351263]}},{"type":"Feature","properties":{"title":"Katholische Kindertageseinrichtung Sankt Pius der Zehnte","description":"","cat1":"Ost","cat2":"Kinder ab 2 Jahre","cat3":"Katholische Kindertageseinrichtungen","street":"Breslauer Str. 68","zip":"47829","city":"Krefeld","region":"Gartenstadt","state":"NRW","tel":"0 21 51 /  4 29 17","mail":"kiga.piusx@gmx.de","web":"http://st-nikolaus-krefeld.de/kindergarten/tfk-st-pius-x","text1":"Straßenbahnlinie 042, Haltestelle \"Pappelstraße\"; Buslinie 058/059, Haltestelle \"Stettiner Straße/ Gubener Straße\"","text2":"montags bis freitags: 07.00 bis 16.00 Uhr","text3":"","text4":"Plätze für Kinder im Alter von zwei Jahren bis zur Einschulung","text5":"Kirchengemeinde und Pfarrei Sankt Nikolaus","text6":"35 und 45 Wochenstunden","text7":"","text8":"35  und 45 Wochenstunden","text9":"","lat":51.36599,"lng":6.622496},"geometry":{"type":"Point","coordinates":[6.622496,51.36599]}},{"type":"Feature","properties":{"title":"Katholische Kindertageseinrichtung Sankt Stephan / Familienzentrum","description":"Familienzentrum; Montessori-Kinderhaus","cat1":"Mitte","cat2":"Kinder ab 4 Monate","cat3":"Katholische Kindertageseinrichtungen","street":"Philadelphiastraße 50 - 52","zip":"47799","city":"Krefeld","region":"Cracau","state":"NRW","tel":"0 21 51 / 2 44 90","mail":"monte-st-stephan@arcor.de","web":"www.kita-st-stephan.net","text1":"alle öffentlichen Verkehrsmittel bis \"Hauptbahnhof\"","text2":"montags bis donnerstags: 07.00 bis 16.30 Uhr; freitags: 07.00 bis 14.00 Uhr","text3":"Montessori-Pädagogik","text4":"Plätze für Kinder im Alter von drei Jahren bis zum Schuleintritt","text5":"Katholischer Kirchengemeindeverband Krefeld-Mitte","text6":"45 Wochenstunden","text7":"45 Wochenstunden","text8":"35 und 45 Wochenstunden","text9":"","lat":51.330121,"lng":6.573324},"geometry":{"type":"Point","coordinates":[6.573324,51.330121]}},{"type":"Feature","properties":{"title":"Katholische Kindertageseinrichtung Sankt Thomas Morus-Süd","description":"","cat1":"West","cat2":"Kinder ab 2 Jahre","cat3":"Katholische Kindertageseinrichtungen","street":"Urfeystraße 25","zip":"47803","city":"Krefeld","region":"Kempener Feld / Baackeshof","state":"NRW","tel":"0 21 51 / 77 45 14","mail":"kitathomo@web.de","text1":"Straßenbahnlinie 041, Haltestelle \"Gutenbergstraße\"","text2":"montags bis freitags: 07.30 bis 16.30 Uhr","text3":"","text4":"Plätze für Kinder im Alter von zwei Jahren bis zum Schuleintritt","text5":"Katholischer Kirchengemeindeverband Krefeld-Nordwest","text6":"45  Wochenstunden","text7":"","text8":"35 und 45 Wochenstunden","text9":"","lat":51.332836,"lng":6.542489},"geometry":{"type":"Point","coordinates":[6.542489,51.332836]}},{"type":"Feature","properties":{"title":"Katholische Kindertagesstätte Sankt Antonius / Familienzentrum","description":"Familienzentrum","cat1":"Süd","cat2":"Kinder ab 2 Jahre","cat3":"Katholische Kindertageseinrichtungen","street":"Oberdießemer Straße 93","zip":"47805","city":"Krefeld","region":"Dießem-Lehmheide","state":"NRW","tel":"0 21 51 / 31 84 88","mail":"kita@caritas-krefeld.de","web":"www.caritas-krefeld.de/arbeitsbereiche/kinder-jugendliche/kindertagesstaette-st-antonius","text1":"Buslinie 052, Haltestelle \"Maria Hilf\"","text2":"montags bis donnerstags: 07.00 bis 17.00 Uhr; freitags: 07.00 bis 15.00 Uhr","text3":"","text4":"Plätze für Kinder im Alter von zwei Jahren bis zur Einschulung","text5":"Katholischer Kirchengemeindeverband Krefeld-Mitte ","text6":"45 Wochenstunden","text7":"","text8":"35 und 45 Wochenstunden","text9":"","lat":51.325372,"lng":6.582224},"geometry":{"type":"Point","coordinates":[6.582224,51.325372]}},{"type":"Feature","properties":{"title":"Katholische Kindertagesstätte Sankt Gertrudis","cat1":"Ost","cat2":"Kinder ab 2 Jahre","cat3":"Katholische Kindertageseinrichtungen","street":"Buschstraße 315","zip":"47800","city":"Krefeld","region":"Bockum","state":"NRW","tel":"0 21 51 / 59 69 73","mail":"kindergartenstgertrudis@t-online.de","web":"kita-st-gertrudis.kibac.de","text1":"Straßenbahnlinie 042 / 043, Haltestelle \"Bockumer Platz\"; Buslinie 927 / 054, Haltestelle \"Schütenhof\"","text2":"montags bis freitags: 07.00 bis 16.00 Uhr","text3":"","text4":"Plätze für Kinder im Alter von zwei Jahren bis zur Einschulung","text5":"Katholischer Kirchengemeinde St. Christophorus","text6":"35 und 45 Wochenstunden","text7":"","text8":"25, 35 und 45 Wochenstunden","text9":"","lat":51.347291,"lng":6.613829},"geometry":{"type":"Point","coordinates":[6.613829,51.347291]}},{"type":"Feature","properties":{"title":"Kindertageseinrichtung  Krokobär","description":"","cat1":"Süd","cat2":"Kinder ab 4 Monate","cat3":"Kindertageseinrichtungen Freier Träger","street":"Reinarzstraße 17","zip":"47805","city":"Krefeld","region":"Dießem-Lehmheide","state":"NRW","tel":"0 21 51 / 31 70 00","mail":"mail@kita-krokobaer.de","web":"www.kita-krokobaer.de","text1":"Straßenbahnlinie 041, Haltestelle \"Feldstraße\"","text2":"montags bis freitags 07.30 bis 16.30 Uhr","text3":"","text4":"Plätze für Kinder im Alter von vier Monaten bis zur Einschulung","text5":"Förderverein Familie und Kind e.V.","text6":"45 Wochenstunden","text7":"45 Wochenstunden","text8":"45 Wochenstunden","text9":"","lat":51.318475,"lng":6.570948},"geometry":{"type":"Point","coordinates":[6.570948,51.318475]}},{"type":"Feature","properties":{"title":"Kindertageseinrichtung der Elterninitative Hexenkessel e.V.","description":"","cat1":"Ost","cat2":"Kinder ab 4 Monate","cat3":"Kindertageseinrichtungen Freier Träger","street":"Zwingenbergstraße 104","zip":"47802","city":"Krefeld","region":"Verberg","state":"NRW","tel":"0 21 51 / 56 10 35","mail":"hexenkessel.krefeld@arcor.de","web":"www.kindertagesstaette-hexenkessel-krefeld.de","text1":"Buslinie 058, Haltestelle \"Wallerspfad\"","text2":"montags bis freitags: 07.15 bis 16.15 Uhr","text3":"","text4":"Plätze für Kinder im Alter von vier Monaten bis zum Schuleintritt","text5":"Elterninitiative Hexenkessel e.V.","text6":"","text7":"45 Wochenstunden","text8":"45 Wochenstunden","text9":"","lat":51.363382,"lng":6.595734},"geometry":{"type":"Point","coordinates":[6.595734,51.363382]}},{"type":"Feature","properties":{"title":"Kindertageseinrichtung der Elterninitiative Kinder & Eltern e.V. - Die Wühlmäuse","description":"","cat1":"Fischeln","cat2":"Kinder ab 2 Jahre","cat3":"Kindertageseinrichtungen Freier Träger","street":"Wimmersweg 31","zip":"47807","city":"Krefeld","region":"Fischeln","state":"NRW","tel":"0 21 51 / 30 31 21","mail":"Leitung@wuehlmaeuse-krefeld.de","web":"www.wuehlmaeuse-krefeld.de/","text1":"Buslinie 060 / 061, Haltestelle \"Rosenstraße\", Straßenbahnlinie 041, Haltestelle \"Fischeln Rathaus\"","text2":"montags bis donnerstags: 07.00 bis 16.30 Uhr; freitags 07.00 bis 14.00 Uhr","text3":"","text4":"Plätze für Kinder im Alter von zwei Jahren bis zum Schuleintritt","text5":"Elterninitiative Kinder & Eltern e.V.","text6":"35 und 45 Wochenstunden","text7":"","text8":"35 und 45 Wochenstunden","text9":"","lat":51.303322,"lng":6.582371},"geometry":{"type":"Point","coordinates":[6.582371,51.303322]}},{"type":"Feature","properties":{"title":"Kindertageseinrichtung der Elterninitiative Kinderzeit e.V.","description":"","cat1":"Nord","cat2":"Kinder ab 4 Monate","cat3":"Kindertageseinrichtungen Freier Träger","street":" Nordstr. 53","zip":"47798","city":"Krefeld","region":"Inrath-Kliedbruch","state":"NRW","tel":"021 51 / 6 53 08 28","mail":"kinderzeit-krefeld@freenet.de","web":"www.kinderzeit-krefeld.de","text1":"Straßenbahnlinie 044, Haltestelle \"Moritzplatz\"","text2":"montags bis freitags: 7:30 bis 16:30 Uhr","text3":"","text4":"Plätze für Kinder im Alter von 4 Monaten bis zum Schuleintritt","text5":"Elterninitiative Kinderzeit e.V.","text6":"35 und 45 Wochenstunden","text7":"35 und 45 Wochenstunden","text8":"25, 35 und 45 Wochenstunden","text9":"","lat":51.338016,"lng":6.558487},"geometry":{"type":"Point","coordinates":[6.558487,51.338016]}},{"type":"Feature","properties":{"title":"Kindertageseinrichtung der Elterninitiative Klein und Groß e.V.","description":"Bewegungskindergarten","cat1":"Fischeln","cat2":"Kinder ab 2 Jahre","cat3":"Kindertageseinrichtungen Freier Träger","street":"Kölner Straße 403","zip":"47807","city":"Krefeld","region":"Fischeln","state":"NRW","tel":"0 21 51 / 39 61 41","mail":"info@kindergartenkleinundgroß.de","web":"www.kindergartenkleinundgross.de/index2.html","text1":"Straßenbahnlinie 041/ Buslinie 058, Haltestelle \"Stadtpark Fischeln\"","text2":"montags bis freitags: 07.30 bis 16.30 Uhr","text3":"","text4":"Plätze für Kinder im Alter von zwei Jahren bis zum Schuleintritt","text5":"Elterninitative Klein und Groß e.V.","text6":"35 und 45 Wochenstunden","text7":"","text8":"35 und 45 Wochenstunden","text9":"","lat":51.310122,"lng":6.582243},"geometry":{"type":"Point","coordinates":[6.582243,51.310122]}},{"type":"Feature","properties":{"title":"Kindertageseinrichtung der Elterninitiative Sonnenland e.V.","description":"Englisch und Computerkurse; tägliche Arbeitgruppen für Kinder, zum Beispiel Kochen, Literatur und Bewegung","cat1":"Mitte","cat2":"Kinder ab 4 Monate","cat3":"Kindertageseinrichtungen Freier Träger","street":"Dreikönigenstraße 126","zip":"47798","city":"Krefeld","region":"Stadtmitte","tel":"0 21 51 / 6 45 13  24","mail":"info@sonnenland-kita.de","web":"www.sonnenland-kita.de","text1":"Buslinie 050/051, Haltestelle \"Karlsplatz\", Straßenbahnlinie 041/042/043/044 Haltestelle \"Dreikönigenstraße\"","text2":"montags bis freitags: 07.30 bis 16.30 Uhr","text3":"","text4":"Plätze für Kinder im Alter von vier Monaten bis zur Einschulung","text5":"Elterninitiative Sonnenland e.V.","text6":"35 und 45 Wochenstunden","text7":"35 und 45 Wochenstunden","text8":"35 und 45 Wochenstunden","text9":"","lat":51.328102,"lng":6.559408},"geometry":{"type":"Point","coordinates":[6.559408,51.328102]}},{"type":"Feature","properties":{"title":"Kindertageseinrichtung der Elterninitiative Waldameisen e.V.","description":"Die Betreuung und Erziehung der Kinder erfolgt nach dem pädagogischen Prinzip der Wald- und Naturkindergärten in Nordrhein-Westfalen.\r\nBetreuungszeiten: ganzjährig von 08:00 - 13:00 Uhr.","cat1":"Hüls","cat2":"Kinder ab 2 Jahre","cat3":"Kindertageseinrichtungen Freier Träger","street":"Talring 181","zip":"47802","city":"Krefeld","region":"Hülser Berg","state":"NRW","tel":"0163 5199040 oder 0163 5199093","mail":"mail@waldameisen-krefeld.de","web":"www.waldameisen-krefeld.de","text1":"Buslinie 060, Haltestelle \"Molenaarstraße\"","text2":"montags bis freitags: 07.45 bis 15.00 Uhr","text3":"","text4":"Plätze für Kinder im Alter von zwei Jahren bis zur Einschulung","text5":"Elterninitative Waldameisen e.V.","text6":"25 Wochenstunden","text7":"","text8":"35 Wochenstunden","text9":"","lat":51.388592,"lng":6.533023},"geometry":{"type":"Point","coordinates":[6.533023,51.388592]}},{"type":"Feature","properties":{"title":"Kindertageseinrichtung der Lebenshilfe e.V. - Am Hauserhof","description":"Integrative Kindertageseinrichtung: Gemeinsame Betreuung, Erziehung und Förderung von behinderten und nicht behinderten Kindern ab drei Jahren;","cat1":"West","cat2":["Kinder ab 2 Jahre","integrativ"],"cat3":"Kindertageseinrichtungen Freier Träger","street":"Am Hauserhof 10","zip":"47803","city":"Krefeld","region":"Kempener Feld / Baackeshof","state":"NRW","tel":"0 21 51 / 78 75 76","mail":"S.Kaczikowski@lebenshilfe-krefeld.de","web":"www.lebenshilfe-krefeld.de","text1":"Straßenbahnlinie 041, Haltestelle \"Obergplatz\"","text2":"Mo, Mi, Do: 07.00 bis 16.30 Uhr; Di: 07.00 bis 16.00 Uhr; Fr: 07.00 bis 15.30 Uhr","text3":"","text4":"Plätze für Kinder im Alter von zwei Jahren bis zur Einschulung","text5":"Lebenshilfe Krefeld e.V.","text6":"35 und 45 Wochenstunden","text7":"","text8":"35 und 45 Wochenstunden","text9":"35 und 45 Wochenstunden","lat":51.330283,"lng":6.539766},"geometry":{"type":"Point","coordinates":[6.539766,51.330283]}},{"type":"Feature","properties":{"title":"Kindertageseinrichtung der Lebenshilfe e.V. - Bischofstraße","description":"Integrative Kindertageseinrichtung: Gemeinsame Betreuung, Erziehung und Förderung von behinderten und nicht behinderten Kindern im Alter ab drei Jahren.","cat1":"Oppum und Linn","cat2":["Kinder ab 2 Jahre","integrativ"],"cat3":"Kindertageseinrichtungen Freier Träger","street":"Bischofstraße 20","zip":"47809","city":"Krefeld","region":"Oppum","state":"NRW","tel":"0 21 51 / 54 83 50","mail":"g.jansen@lebenshilfe-krefeld.de","web":"www.lebenshilfe-krefeld.de","text1":"Buslinien 047, 052 und 057: Haltestelle Bischofstraße; Zugverbindung DB: Bhf Krefeld-Oppum","text2":"montags  bis donnerstags: 07.00 bis 16.30 Uhr; freitags: 07.00 bis 16.00 Uhr","text3":"","text4":"Plätze für Kinder im Alter von zwei Jahren bis zur Einschulung","text5":" Lebenshilfe Krefeld e.V","text6":"35 und 45 Wochenstunden","text7":"","text8":"35 und 45 Wochenstunden","text9":"35 und 45 Wochenstunden","lat":51.327588,"lng":6.617941},"geometry":{"type":"Point","coordinates":[6.617941,51.327588]}},{"type":"Feature","properties":{"title":"Kindertageseinrichtung des Deutschen Kinderschutzbundes Ortsverband Krefeld e.V. - Dreikäsehoch / Familienzentrum","description":"","cat1":"Nord","cat2":"Kinder ab 4 Monate","cat3":"Kindertageseinrichtungen Freier Träger","street":"Kanesdyk 35","zip":"47803","city":"Krefeld","region":"Inrath-Kliedbruch","state":"NRW","tel":"0 21 51 / 75 26 25","mail":"dreikaesehoch@kinderschutzbund-krefeld.de","web":"www.kinderschutzbund-krefeld.de","text1":"Bahnlinie 044, Richtung Hüls: Haltestelle 'Weyerhofstraße'","text2":"montags bis freitags: 07.30 bis 16.30 Uhr","text3":"https://kita-online.krzn.de/KITA-Online/buerger/BuergerKitaDetail.action?pSCCSZ490VvxdJ2pftsmia6HiS-EJ7-HqHX8DE8woW42Hmpv8A1TKgCXaALvRePzE-5F6OomS_uJo6AzAsIb24msgAV-bgiqHUF_3MnAmGkU_7_gIMHqenoRCEqFEgPEtxpBvEwwoSiCm0iRkzt0ob8j_dNINI8eVnZCullb7q8RyAAMCUff1X3l4jyOf5gcRkliTkVC=0","text4":"Plätze für Kinder im Alter von 4 Monaten bis zur Einschulung","text5":"Deutscher Kinderschutzbund Ortsverein Krefeld e.V.","text6":"35 Wochenstunden","text7":"35 und 45 Wochenstunden","text8":"45 Wochenstunden","text9":"","lat":51.351513,"lng":6.547723},"geometry":{"type":"Point","coordinates":[6.547723,51.351513]}},{"type":"Feature","properties":{"title":"Kindertageseinrichtung des Deutschen Kinderschutzbundes, Ortsverband Krefeld e.V. - Pfiffikus","description":"Integrative Kindertageseinrichtung: Gemeinsame Betreuung, Erziehung und Förderung von behinderten und nicht behinderten Kindern im Alter ab drei Jahren.","cat1":"Nord","cat2":["Kinder ab 2 Jahre","integrativ"],"cat3":"Kindertageseinrichtungen Freier Träger","street":"Wilmendyk 75","zip":"47803","city":"Krefeld","region":"Inrath-Kliedbruch","state":"NRW","tel":"0 21 51 / 75 86 60","mail":"pfiffikus@kinderschutzbund-krefeld.de","web":"www.kinderschutzbund-krefeld.de","text1":"Bahnlinie 044, Richtung Hüls: Haltestelle 'Moritzplatz'","text2":"montags bis freitags: 07.30 bis 16.30 Uhr","text3":"","text4":"Plätze für Kinder im Alter von  zwei Jahren bis zum Schuleintritt","text5":"Deutscher Kinderschutzbund Ortsverband Krefeld e.V.","text6":"35 und 45 Wochenstunden","text7":"","text8":"35 und 45 Wochenstunden","text9":"35 und 45 Wochenstunden","lat":51.349653,"lng":6.553472},"geometry":{"type":"Point","coordinates":[6.553472,51.349653]}},{"type":"Feature","properties":{"title":"Kindertageseinrichtung des Vereins Advent-Kindergarten e.V.","description":"","cat1":"Mitte","cat2":"Kinder ab 2 Jahre","cat3":"Kindertageseinrichtungen Freier Träger","street":"Steckendorfer Straße 151-153","zip":"47798","city":"Krefeld","region":"Stadtmitte","state":"NRW","tel":"0 21 51 / 61 44 50","mail":"advent-kita-kr@t-online.de","web":"www.advent-kindergarten.de","text1":"Straßenbahnlinie 044, Haltestelle \"Nordwall\"","text2":"montags bis donnerstags: 07.30 bis 17.00 Uhr; freitags: 07.30 bis 15.00 Uhr","text3":"","text4":"Plätze für Kinder im Alter von zwei Jahren bis zur Einschulung","text5":"Verein Adventkindergarten e.V.","text6":"35 Wochenstunden","text7":"","text8":"45 Wochenstunden","text9":"","lat":51.339554,"lng":6.562009},"geometry":{"type":"Point","coordinates":[6.562009,51.339554]}},{"type":"Feature","properties":{"title":"Kindertageseinrichtung SieKids Rail Kids","cat1":"Uerdingen und Gellep-Stratum","cat2":["Kinder ab 4 Monate","integrativ"],"cat3":"Kindertageseinrichtungen Freier Träger","street":"Adolf-Dembach- Str. 3","zip":"47829 ","city":"Krefeld","region":"Uerdingen","tel":"02151 / 1559825","mail":"kita.siekids-krefeld@awo-niederrhein.de","text1":"Buslinie 058, Haltestelle Behringstraße","text2":"montags bis freitags: 7.00 Uhr bis 18.00 Uhr","text3":"","text4":"Plätze für Kinder von 4 Monaten bis zur Einschulung","text5":"","text6":"25, 35 und 45 Wochenstunden","text7":"25, 35 und 45 Wochenstunden","text8":"","text9":"25, 35 und 45 Wochenstunden","lat":51.369341,"lng":6.64045},"geometry":{"type":"Point","coordinates":[6.64045,51.369341]}},{"type":"Feature","properties":{"title":"Kindertageseinrichtung Sportpark - Zwerge e.V.","description":"Elterninitiative\r\n\r\n","cat1":"Uerdingen und Gellep-Stratum","cat2":"Kinder ab 4 Monate","cat3":"Kindertageseinrichtungen Freier Träger","street":"Löschenhofweg 70","zip":"47829","city":"Krefeld","region":"Uerdingen","tel":"02151 - 61 69 720","mail":"info@sportpark-zwerge.de","web":"www.Sportpark-Zwerge.de","text1":"Buslinie 058 und 059, Haltestelle \"Kampstraße\"","text2":"montags bis freitags 07.30 Uhr bis 16.30 Uhr","text3":"Bewegungserziehung mit dem Pluspunkt Ernährung","text4":"Kinder von 4 Monaten bis 6 Jahre","text5":"","text6":"35 und 45 Wochenstunden","text7":"45 Wochenstunden","text8":"35 und 45 Wochenstunden","text9":"","lat":51.364146,"lng":6.631515},"geometry":{"type":"Point","coordinates":[6.631515,51.364146]}},{"type":"Feature","properties":{"title":"Kindertageseinrichtung Zaubersterne","cat1":"Hüls","cat2":"Kinder ab 4 Monate","cat3":"Kindertageseinrichtungen Freier Träger","street":"Hölschen Dyk 29","zip":"47839 ","city":"Krefeld","region":"Hüls","tel":"02151 / 45 45 630","mail":"kh-hoelschendy@zaubersterne-duisburg.de","web":"www.zaubersterne-duisburg.de","text1":"Buslinie 45, Haltestelle \"Hüls Krankenhaus\" oder \"Rektoratsstraße\"","text2":"montags bis freitags 07.00 - 17.00 Uhr","text3":"","text4":"Betreuungsplätze für Kinder im Alter von 4 Monaten bis 6 Jahre","text5":"","text6":"35 und 45 Wochenstunden","text7":"35 und 45 Wochenstunden","text8":"35 und 45 Wochenstunden","text9":"","lat":51.375525,"lng":6.517445},"geometry":{"type":"Point","coordinates":[6.517445,51.375525]}},{"type":"Feature","properties":{"title":"Kindertagesstätte der Arbeiterwohlfahrt - Gerberstraße / Familienzentrum","description":"Familienzentrum im Verbund mit der AWO-Kindertagesstätte Taka -Tuka","cat1":"Mitte","cat2":"Kinder ab 2 Jahre","cat3":"Kindertageseinrichtungen Freier Träger","street":"Gerberstraße 45 ","zip":"47798","city":"Krefeld","region":"Stadtmitte","state":"NRW","tel":"0 21 51 - 39 52 90","mail":"FamZ.Kita.Gerberstr45@awo-niederrhein.de","web":"http://www.awo-nr.de/escor/AWO-Familienzentrum-Kita-Gerberstr.1781.0.html","text1":"Innenstadt, alle öffentlichen Verkehrsmittel bis Hauptbahnhof","text2":"montags bis freitags: 07.00 bis 16.30 Uhr","text3":"","text4":"Plätze für Kinder im Alter von zwei Jahren bis zur Einschulung","text5":"Arbeiterwohlfahrt Niederrhein","text6":"35 und 45 Wochenstunden","text7":"","text8":"45 Wochenstunden","text9":"","lat":51.326414,"lng":6.564616},"geometry":{"type":"Point","coordinates":[6.564616,51.326414]}},{"type":"Feature","properties":{"title":"Kindertagesstätte der Arbeiterwohlfahrt - Taka -Tuka / Familienzentrum","description":"Familienzentrum im Verbund mit der AWO-Kindertagesstätte Gerberstraße;","cat1":"Mitte","cat2":"Kinder ab 2 Jahre","cat3":"Kindertageseinrichtungen Freier Träger","street":"Gerberstraße 50 a","zip":"47798","city":"Krefeld","region":"Stadtmitte","state":"NRW","tel":"0 21 51 / 39 87 24","mail":"FamZ.Kita.Gerberstr.50a@awo-niederrhein.de","web":"www.awo-krefeld.de","text1":"Innenstadt, alle öffentlichen Verkehrsmittel bis \"Hauptbahnhof\"","text2":"montags bis freitags: 07.00 bis 16.30 Uhr","text3":"","text4":"Plätze für Kinder im Alter von zwei  Jahren bis zum Schuleintritt","text5":"Arbeiterwohlfahrt Niederrhein","text6":"45  Wochenstunden","text7":"","text8":"35 und 45  Wochenstunden","text9":"","lat":51.326401,"lng":6.563611},"geometry":{"type":"Point","coordinates":[6.563611,51.326401]}},{"type":"Feature","properties":{"title":"Kindertagesstätte der Elterninitiative Kinderinsel e.V.","description":"Musik und Kreativität","cat1":"Oppum und Linn","cat2":"Kinder ab 4 Monate","cat3":"Kindertageseinrichtungen Freier Träger","street":"Glockenspitz 406","zip":"47809","city":"Krefeld","region":"Oppum","state":"NRW","tel":"0 21 51 / 59 81 88 ","mail":"post@kinderinsel-ev.de","web":"www.kinderinsel-ev.de","text1":"Straßenbahnlinie 044: Haltestelle 'Glindholzstraße'","text2":"montags bis freitags: 07.30 bis 16.30 Uhr","text3":"","text4":"Plätze für Kinder im Alter von vier Monaten bis zur Einschulung","text5":"Elterninitiative Kinderinsel e.V.","text6":"45 Wochenstunden","text7":"45 Wochenstunden","text8":"","text9":"","lat":51.337466,"lng":6.616025},"geometry":{"type":"Point","coordinates":[6.616025,51.337466]}},{"type":"Feature","properties":{"title":"Städtische Kindertageseinrichtung Alte Gladbacher Straße","description":"Schlaumäuse; Elementare Musische Erziehung / EMU; Zwergenbibliothek;\r\n \r\n \r\n\r\n","cat1":"Süd","cat2":"Kinder ab 2 Jahre","cat3":"Städtische Kindertageseinrichtungen","street":"Alte Gladbacher Straße 21","zip":"47805","city":"Krefeld","region":"Dießem-Lehmheide","state":"NRW","tel":"0 21 51 / 39 88 94","mail":"ki.altegladbacher@krefeld.de","web":" ","text1":"Buslinie  058: Haltestelle 'Alte Gladbacher Straße'","text2":"montags bis freitags: 07:00 Uhr bis 16:00 Uhr","text3":"","text4":"für Kinder von zwei Jahren bis zum Schuleintritt","text5":"Stadt Krefeld","text6":"35 und 45 Wochenstunden","text7":"","text8":"45 Wochenstunden","text9":"","lat":51.321089,"lng":6.552798},"geometry":{"type":"Point","coordinates":[6.552798,51.321089]}},{"type":"Feature","properties":{"title":"Städtische Kindertageseinrichtung Am Kempschen Weg / Familienzentrum","description":"Familienzentrum; Elementare musische Erziehung / EMU\r\n\r\n","cat1":"West","cat2":"Kinder ab 2 Jahre","cat3":"Städtische Kindertageseinrichtungen","street":"Am Kempschen Weg 51","zip":"47804","city":"Krefeld","region":"Benrad - Nord","state":"NRW","tel":"02151 / 78 84 54","mail":"ki.amkempschenweg@krefeld.de","text1":"Straßenbahn Linie 041: Haltestelle 'Schicks'","text2":"montags bis donnerstags: 07:00 bis 16:15 Uhr; freitags: 07:00 Uhr bis 15:00 Uhr","text3":"","text4":"Plätze für Kinder im Alter von zwei Jahren bis zum Schuleintritt","text5":"Stadt Krefeld","text6":"35 und 45 Wochenstunden","text7":"","text8":"35 und 45 Wochenstunden","text9":"","lat":51.329003,"lng":6.524604},"geometry":{"type":"Point","coordinates":[6.524604,51.329003]}},{"type":"Feature","properties":{"title":"Städtische Kindertageseinrichtung Am Kinderhort / Familienzentrum","description":"Familienzentrum\r\n\r\n","cat1":"West","cat2":"Kinder ab 4 Monate","cat3":"Städtische Kindertageseinrichtungen","street":"Am Kinderhort 28","zip":"47804","city":"Krefeld","region":"Benrad - Süd","state":"NRW","tel":"0 21 51 / 15 27 662 (für Anmeldungen während des Umbaus der Kita) ","mail":"ki.amkinderhort@krefeld.de","text1":"Buslinie  051  aus Richtung Hauptbahnhof: Haltestelle 'Heimatplan'; aus Richtung Forstwald kommend: Haltestelle 'Freiheitsstraße'","text2":"montags bis donnerstags: 07:00 bis 16:30 Uhr; freitags: 07:00 Uhr bis 15:00 Uhr","text3":"","text4":"Plätze für Kinder von vier Monaten bis zur Einschulung","text5":"Stadt Krefeld","text6":"35 und 45 Wochenstunden","text7":"45 Wochenstunden","text8":"35 und 45 Wochenstunden","text9":"","lat":51.318613,"lng":6.532677},"geometry":{"type":"Point","coordinates":[6.532677,51.318613]}},{"type":"Feature","properties":{"title":"Städtische Kindertageseinrichtung An de Dreew","description":"Integrative Kindertageseinrichtung: Gemeinsame Betreuung, Erziehung und Förderung von behinderten und nicht behinderten Kindern ab zwei Jahren. Teilnahme am Kooperationsprojekt 'Agenda 21'; Musik und Bewegung; Teilnahme am Präventionsprogramm der BKK Novitas \"Fit von Klein auf\", anerkannter Bewegungskindergarten NRW\r\n\r\n","cat1":"Hüls","cat2":["Kinder ab 2 Jahre","integrativ"],"cat3":"Städtische Kindertageseinrichtungen","street":"An de Dreew 16","zip":"47839","city":"Krefeld","region":"Hüls","state":"NRW","tel":"0 21 51 / 74 31 11","mail":"ki.andedreew@krefeld.de","text1":"Buslinie 045, Haltestelle \"Am Porthspick\"","text2":"montags bis freitags: 07.00 Uhr bis 16.00 Uhr","text3":"Integration von behinderten Kindern ab zwei Jahren (Modellversuch)","text4":"Plätze für Kinder im Alter von zwei Jahren bis zum Schuleintritt","text5":"Stadt Krefeld","text6":"35 und 45 Wochenstunden","text7":"35 und 45 Wochenstunden","text8":"35 und 45 Wochenstunden","text9":"45 Wochenstunden","lat":51.381544,"lng":6.511398},"geometry":{"type":"Point","coordinates":[6.511398,51.381544]}},{"type":"Feature","properties":{"title":"Städtische Kindertageseinrichtung Arndtstraße / Familienzentrum","description":"Familienzentrum; Lesepatenschaften; 'Haus der kleinen Forscher'; Teilnahme am Präventionsprogramm der BKK Novitas \"Fit von Klein auf\"\r\n\r\n","cat1":"Uerdingen und Gellep-Stratum","cat2":"Kinder ab 2 Jahre","cat3":"Städtische Kindertageseinrichtungen","street":"Arndtstraße 100","zip":"47829","city":"Krefeld","region":"Uerdingen","state":"NRW","tel":"0 21 51 / 48 11 11","mail":"ki.arndtstr@krefeld.de","text1":"Straßenbahnlinie  043  aus bzw in Richtung Hauptbahnhof: Haltestelle 'Alte Krefelder Strasse' ; Buslinie  058  aus bzw in Richtung Uerdingen, Gartenstadt, Verberg, Traar; Haltestelle 'Arndtstraße'  Buslinie  059  aus bzw in Richtung   Linn, Uerdingen: Haltestelle 'Arndtstraße'","text2":"montags bis freitags: 07.00 bis 16.00 Uhr","text3":"Naturwissenschaften","text4":"Plätze für Kinder im Alter von zwei Jahren bis zum Schuleintritt","text5":"Stadt Krefeld","text6":"45 Wochenstunden","text7":"","text8":"35 und 45 Wochenstunden","text9":"","lat":51.353026,"lng":6.636082},"geometry":{"type":"Point","coordinates":[6.636082,51.353026]}},{"type":"Feature","properties":{"title":"Städtische Kindertageseinrichtung Arnsweg","description":"Zwergenbibliothek","cat1":"Ost","cat2":"Kinder ab 4 Monate","cat3":"Städtische Kindertageseinrichtungen","street":"Arnsweg 20","zip":"47802","city":"Krefeld","region":"Traar","tel":"0 21 51 / 56 22 03","mail":"ki.arnsweg@krefeld.de","text1":"Buslinie  052  aus Richtung Hauptbahnhof; Haltestelle 'Bergstiege'; Buslinie  058 aus Richtung Oppum, Uerdingen, Verberg, Elfrath: Haltestelle 'Bergstiege'","text2":"montags bis freitags: 07:00 bis 16:00 Uhr","text3":"","text4":"Plätze für Kinder im Alter von 6 Monaten bis zum Schuleintritt","text5":"Stadt Krefeld","text6":"35 und 45 Wochenstunden","text7":"45 Wochenstunden","text8":"35 und 45 Wochenstunden","text9":"","lat":51.379801,"lng":6.592322},"geometry":{"type":"Point","coordinates":[6.592322,51.379801]}},{"type":"Feature","properties":{"title":"Städtische Kindertageseinrichtung Bacherhofstraße","cat1":"Oppum und Linn","cat2":"Kinder ab 4 Monate","cat3":"Städtische Kindertageseinrichtungen","street":"Bacherhofstraße 75","zip":"47809","city":"Krefeld","region":"Oppum","state":"NRW","tel":"0 21 51 / 54 25 47","mail":"ki.bacherhofstr@krefeld.de","text1":"Buslinie  052: Haltestelle 'Bacherhofstrasse'; Buslinie 057: Haltestelle 'Heckschenstrasse'","text2":"montags bis donnertags: 07.00 bis 16.30 Uhr; freitags: 07.00 bis 15.15 Uhr","text3":"","text4":"Plätze für Kinder im Alter von vier Monaten bis zum Schuleintritt","text5":"Stadt Krefeld","text6":"45 Wochenstunden","text7":"45 Wochenstunden","text8":"25, 35 und 45 Wochenstunden","text9":"","lat":51.320411,"lng":6.616564},"geometry":{"type":"Point","coordinates":[6.616564,51.320411]}},{"type":"Feature","properties":{"title":"Städtische Kindertageseinrichtung Breite Straße","cat1":"Mitte","cat2":"Kinder ab 4 Monate","cat3":"Städtische Kindertageseinrichtungen","street":"Breite Straße 107","zip":"47798","city":"Krefeld","region":"Stadtmitte","state":"NRW","tel":"0 21 51 /   2 36 46","mail":"ki.breitestr@krefeld.de","text1":"Straßenbahnlinie  041  in bzw aus Richtung St. Tönis: Haltestelle 'Westwall / Rathaus';Buslinie 051 in bzw. aus Richtung Forstwald / Gatherhof: Haltestelle 'Carl-Wilhelm-Museum'","text2":"montags bis freitags: 07.30 bis 16.30 Uhr","text3":"","text4":"Plätze für Kinder im Alter von zwei Jahren bis zum Schuleintritt","text5":"Stadt Krefeld","text6":"45 Wochenstunden","text7":"35 Wochenstunden","text8":"35 und 45 Wochenstunden","text9":"","lat":51.331708,"lng":6.560681},"geometry":{"type":"Point","coordinates":[6.560681,51.331708]}},{"type":"Feature","properties":{"title":"Städtische Kindertageseinrichtung Cäcilienstraße","description":"","cat1":"Hüls","cat2":"Kinder ab 3 Jahre","cat3":"Städtische Kindertageseinrichtungen","street":"Cäcilienstraße 15","zip":"47839","city":"Krefeld","region":"Hüls","tel":"0 21 51 / 73 57 55","mail":"ki.caecilienstr@krefeld.de","text1":"Straßenbahnlinie 044, Haltestelle \"Hüls-Betriebshof\",  Buslinie 045 Haltestelle 'Schulstraße'","text2":"montags  bis freitags: 07.00 bis 14.00 Uhr","text3":"","text4":"Plätze für Kinder im Alter von 3 Jahren bis zum Schuleintritt","text5":"Stadt Krefeld","text6":"","text7":"","text8":"35 Wochenstunden","text9":"","lat":51.370162,"lng":6.50959},"geometry":{"type":"Point","coordinates":[6.50959,51.370162]}},{"type":"Feature","properties":{"title":"Städtische Kindertageseinrichtung Dieselstraße / Familienzentrum","description":"Familienzentrum; Bewegungskindergarten\r\n\r\n","cat1":"Nord","cat2":"Kinder ab 4 Monate","cat3":"Städtische Kindertageseinrichtungen","street":"Dieselstraße 24","zip":"47803","city":"Krefeld","region":"Benrad - Nord","state":"NRW","tel":"0 21 51 / 75 67 43 ","mail":"ki.dieselstr@krefeld.de","text1":"Buslinie 057: Haltestelle 'Benrader Straße'","text2":"montags bis donnerstags: 07.00 bis 16.30 Uhr; freitags 07:00 - 14.00 Uhr","text3":"","text4":"Plätze für Kinder im Alter von vier Monaten bis zum Schuleintritt","text5":"Stadt Krefeld","text6":"45 Wochenstunden","text7":"45 Wochenstunden","text8":"35 und 45 Wochenstunden","text9":"","lat":51.348304,"lng":6.525509},"geometry":{"type":"Point","coordinates":[6.525509,51.348304]}},{"type":"Feature","properties":{"title":"Städtische Kindertageseinrichtung Felbelstraße","description":"Bewegungskindergarten; Elementare musische Erziehung / EMU; Teilnahme am Gesundheitsförderprogramm der AOK Rheinland / Hamburg \"Starke Kids-Netzwerk\" ;\r\n\r\n","cat1":"Mitte","cat2":"Kinder ab 2 Jahre","cat3":"Städtische Kindertageseinrichtungen","street":"Felbelstraße 6","zip":"47799","city":"Krefeld","region":"Cracau","state":"NRW","tel":"0 21 51 / 61 53 34","mail":"ki.felbelstr@krefeld.de","text1":"Buslinien  054  und  058  aus und in Richtung Hauptbahnhof: Haltestelle 'Bleichpfad'","text2":"montags bis freitags: 07.15 bis 16.15 Uhr","text3":"","text4":"Plätze für Kinder im Alter von zwei  Jahren bis zur Einschulung","text5":"Stadt Krefeld","text6":"45 Wochenstunden","text7":"","text8":"45 Wochenstunden","text9":"","lat":51.336479,"lng":6.568241},"geometry":{"type":"Point","coordinates":[6.568241,51.336479]}},{"type":"Feature","properties":{"title":"Städtische Kindertageseinrichtung Feldstraße / Familienzentrum","description":"'Agenda 21'; 'Haus der kleinen Forscher' ; Familienzentrum: Die Angebote des Familienzentrums können im Haus erfragt werden.\r\n\r\n","cat1":"Süd","cat2":"Kinder ab 2 Jahre","cat3":"Städtische Kindertageseinrichtungen","street":"Feldstraße 30","zip":"47805","city":"Krefeld","region":"Dießem-Lehmheide","state":"NRW","tel":"0 21 51 / 31 67 86","mail":"ki.feldstr@krefeld.de","text1":"Straßenbahnlinie  041: Haltestelle 'Feldstraße'; Buslinie  061: Haltestelle 'Feldstraße'","text2":"montags bis freitags: 07.00 Uhr bis 17.30 Uhr","text3":"Sprachförderung","text4":"Plätze für Kinder im Alter von 2 Jahren bis zum Schuleintritt","text5":"Stadt Krefeld","text6":"35 und 45 Wochenstunden","text7":"","text8":"35 und 45 Wochenstunden","text9":"","lat":51.319439,"lng":6.575587},"geometry":{"type":"Point","coordinates":[6.575587,51.319439]}},{"type":"Feature","properties":{"title":"Städtische Kindertageseinrichtung Florastraße / Familienzentrum","cat1":"Mitte","cat2":["Kinder ab 4 Monate","integrativ"],"cat3":"Städtische Kindertageseinrichtungen","street":"Florastr. 19","zip":"47799","city":"Krefeld","region":"Mitte","tel":"02151 / 154 07 47","mail":"ki.florastr@krefeld.de","text1":"Straßenbahnlinie 044, Haltestelle \"Florastr.\"","text2":"montags bis freitags: 7:00 - 16:00","text3":"","text4":"Plätze für Kinder im Alter von vier Monaten bis zur Einschulung","text5":"","text6":"35 und 45 Wochenstunden","text7":"45 Wochenstunden","text8":"45 Wochenstunden","text9":"45 Wochenstunden","lat":51.333095,"lng":6.582149},"geometry":{"type":"Point","coordinates":[6.582149,51.333095]}},{"type":"Feature","properties":{"title":"Städtische Kindertageseinrichtung Fungendonk","description":"Kunst und Theater; Elementare musische Erziehung / EMU;\r\n\r\n","cat1":"Oppum und Linn","cat2":"Kinder ab 2 Jahre","cat3":"Städtische Kindertageseinrichtungen","street":"Fungendonk 29","zip":"47809","city":"Krefeld","region":"Oppum","state":"NRW","tel":"0 21 51 / 54 65 75","mail":"ki.fungendonk@krefeld.de","text1":"Buslinie  052: Haltestelle 'Geschwister-Scholl-Schule'","text2":"montags bis donnerstags: 07.00 Uhr bis 16.30 Uhr; freitags: 07.00 bis 15.15 Uhr","text3":"","text4":"Plätze für Kinder im Alter von zwei Jahren bis zum Schuleintritt","text5":"Stadt Krefeld","text6":"35 und 45  Wochenstunden","text7":"","text8":"35 Wochenstunden","text9":"","lat":51.319778,"lng":6.611031},"geometry":{"type":"Point","coordinates":[6.611031,51.319778]}},{"type":"Feature","properties":{"title":"Städtische Kindertageseinrichtung Gatzenstraße","cat1":"Ost","cat2":["Kinder ab 4 Monate","integrativ"],"cat3":"Städtische Kindertageseinrichtungen","street":"Gatzenstr. 179","zip":"47802","city":"Krefeld","tel":"02151 / 569 59 29","mail":"ki.gatzenstr@krefeld.de","text1":"Buslinie 058, Haltestelle \"Wallerspfad\"","text2":"montags bis freitags 07.00 Uhr bis 16.00 Uhr","text3":"","text4":"Plätze für Kinder im Alter von vier Monaten bis zur Einschulung ","text5":"","text6":"35 und 45 Wochenstunden","text7":"35 und 45 Wochenstunden","text8":"25, 35 und 45 Wochenstunden","text9":"45 Wochenstunden","lat":51.365097,"lng":6.60134},"geometry":{"type":"Point","coordinates":[6.60134,51.365097]}},{"type":"Feature","properties":{"title":"Städtische Kindertageseinrichtung Geldernsche Straße","description":"","cat1":"Mitte","cat2":"Kinder ab 2 Jahre","cat3":"Städtische Kindertageseinrichtungen","street":"Geldernsche Straße 89 - 95","zip":"47799","city":"Krefeld","region":"Stadtmitte","state":"NRW","tel":"0 21 51 / 60 63 58","mail":"ki.geldernschestr@krefeld.de","text1":"Straßenbahnlinie  044: Haltestelle 'Oranierring'; Buslinien  076, 077 und 079 : Haltestelle 'Oranierring'; Buslinien  066  und  069: Haltestelle 'Moritzplatz'","text2":"montags bis freitags: 07.00 bis 16.00 Uhr","text3":"Literatur und Kommunikation","text4":"Plätze für Kinder im Alter von 2 Jahren bis zum Schuleintritt","text5":"Stadt Krefeld","text6":"45 Wochenstunden","text7":"","text8":"35 und 45 Wochenstunden","text9":"","lat":51.340278,"lng":6.556015},"geometry":{"type":"Point","coordinates":[6.556015,51.340278]}},{"type":"Feature","properties":{"title":"Städtische Kindertageseinrichtung Grevenbroicher Straße","description":"Elementare musische Erziehung / EMU; 'Haus der kleinen Forscher'\r\n\r\n","cat1":"Fischeln","cat2":"Kinder ab 4 Monate","cat3":"Städtische Kindertageseinrichtungen","street":"Grevenbroicher Straße 84","zip":"47807","city":"Krefeld","region":"Fischeln","state":"NRW","tel":"0 21 51 / 30 35 75","mail":"ki.grevenbroicher@krefeld.de","text1":"Buslinien  047, 060 und 061: Haltestelle 'Grevenbroicher Straße'","text2":"montags bis freitags: 07.00 bis 16.00 Uhr","text3":"Naturwissenschaften","text4":"Plätze für Kinder im Alter von zwei Jahren bis zum Schuleintritt","text5":"Stadt Krefeld","text6":"35 und 45 Wochenstunden","text7":"45 Wochenstunden","text8":"35 und 45 Wochenstunden","text9":"","lat":51.30347,"lng":6.577248},"geometry":{"type":"Point","coordinates":[6.577248,51.30347]}},{"type":"Feature","properties":{"title":"Städtische Kindertageseinrichtung Herbertzstraße / Familienzentrum","description":"Familienzentrum; Zwergenbibliothek;","cat1":"Oppum und Linn","cat2":"Kinder ab 4 Monate","cat3":"Städtische Kindertageseinrichtungen","street":"Herbertzstraße 201","zip":"47809","city":"Krefeld","region":"Oppum","state":"NRW","tel":"0 21 51 / 54 64 96","mail":"ki.herbertzstr@krefeld.de","text1":"Buslinie  057: Haltestelle 'Trift'","text2":"montags bis donnerstags: 07.00 bis 16.15 Uhr; freitags: 07.00 bis 15.00 Uhr","text3":"Sprachförderung","text4":"Plätze für Kinder im Alter von 4 Monaten bis zur Einschulung","text5":"Stadt Krefeld","text6":"35 und 45 Wochenstunden","text7":"45 Wochenstunden","text8":"45 Wochenstunden","text9":"","lat":51.324346,"lng":6.598423},"geometry":{"type":"Point","coordinates":[6.598423,51.324346]}},{"type":"Feature","properties":{"title":"Städtische Kindertageseinrichtung Hermannstraße","description":"'Haus der kleinen Forscher'\r\n\r\n","cat1":"West","cat2":"Kinder ab 2 Jahre","cat3":"Städtische Kindertageseinrichtungen","street":"Hermannstraße 39","zip":"47805","city":"Krefeld","region":"Stadtmitte","state":"NRW","tel":"0 21 51 / 78 78 30","mail":"ki.hermannstr@krefeld.de","text1":"Buslinie 051 aus bzw in Richtung Forstwald / Gatherhof: Haltestelle 'Nauenweg' (Fußweg von dort bis zur Einrichtung ca 7 - 10 Minuten) Buslinie  058  aus bzw in Richtung Fischeln / Königshof; Haltestelle 'Adlerstraße'","text2":"montags bis freitags: 07.00 bis 16.00 Uhr","text3":"","text4":"Plätze für Kinder im Alter von zwei Jahren bis zum Schuleintritt","text5":"Stadt Krefeld","text6":"35  und 45 Wochenstunden","text7":"","text8":"35 Wochenstunden","text9":"","lat":51.325061,"lng":6.55199},"geometry":{"type":"Point","coordinates":[6.55199,51.325061]}},{"type":"Feature","properties":{"title":"Städtische Kindertageseinrichtung Hohenzollernstraße","description":"Bilinguale Ausrichtung; 'Haus der kleinen Forscher';\r\n\r\n","cat1":"Mitte","cat2":"Kinder ab 3 Jahre","cat3":"Städtische Kindertageseinrichtungen","street":"Hohenzollernstraße 93","zip":"47799","city":"Krefeld","region":"Cracau","state":"NRW","tel":"0 21 51 / 59 63 63","mail":"ki.hohenzollern@krefeld.de","text1":"Buslinien  054  und  058  aus bzw in Richtung Hauptbahnhof: Haltestelle 'Wilhelmshofallee'","text2":"montags bis freitags: 07.30 bis 16.30 Uhr","text3":"","text4":"Plätze für Kinder im Alter von drei Jahren bis zur Einschulung","text5":"Stadt Krefeld","text6":"","text7":"","text8":"25, 35 und 45 Wochenstunden","text9":"","lat":51.345383,"lng":6.577444},"geometry":{"type":"Point","coordinates":[6.577444,51.345383]}},{"type":"Feature","properties":{"title":"Städtische Kindertageseinrichtung Jakob-Hüskes-Straße","description":"'Haus der kleinen Forscher'\r\n\r\n","cat1":"Hüls","cat2":"Kinder ab 4 Monate","cat3":"Städtische Kindertageseinrichtungen","street":"Jakob-Hüskes-Str.47","zip":"47839","city":"Krefeld","region":"Hüls","state":"NRW","tel":"0 21 51 / 369 91 36","mail":"ki.jakob-hueskes@krefeld.de","text1":"Straßenbahnlinie 044, Haltestelle \"Steeger Dyk\"","text2":"montags bis freitags: 07.00 bis 16.00 Uhr","text3":"Naturwissenschaften","text4":"Plätze für Kinder im Alter von vier Monaten bis zur Einschulung","text5":"Stadt Krefeld","text6":"35 und 45 Wochenstunden","text7":"35 und 45 Wochenstunden","text8":"35 und 45 Wochenstunden","text9":"","lat":51.36827,"lng":6.521441},"geometry":{"type":"Point","coordinates":[6.521441,51.36827]}},{"type":"Feature","properties":{"title":"Städtische Kindertageseinrichtung Körnerstraße","description":"","cat1":"Uerdingen und Gellep-Stratum","cat2":"Kinder ab 4 Monate","cat3":"Städtische Kindertageseinrichtungen","street":"Körnerstraße 22","zip":"47829","city":"Krefeld","region":"Uerdingen","state":"NRW","tel":"0 21 51 / 47 68 59","mail":"ki.koernerstr@krefeld.de","text1":"Buslinie 058, Haltestelle \"Körnerstraße\"","text2":"montags bis freitags: 07.00 bis 16.00 Uhr","text3":"","text4":"Plätze für Kinder im Alter von vier Monaten bis zur Einschulung","text5":"Stadt Krefeld","text6":"35 und 45 Wochenstunden","text7":"45 Wochenstunden","text8":"35 und 45 Wochenstunden","text9":"","lat":51.363411,"lng":6.647095},"geometry":{"type":"Point","coordinates":[6.647095,51.363411]}},{"type":"Feature","properties":{"title":"Städtische Kindertageseinrichtung Kreuzweg","description":"'Haus der kleinen Forscher'; Elementare musische Erziehung / EMU\r\n\r\n","cat1":"Oppum und Linn","cat2":"Kinder ab 2 Jahre","cat3":"Städtische Kindertageseinrichtungen","street":"Kreuzweg 49","zip":"47809","city":"Krefeld","region":"Linn","state":"NRW","tel":"0 21 51 / 57 14 84","mail":"ki.kreuzweg@krefeld.de","text1":"Buslinien  047  und  059: Haltestelle 'Burg Linn'; Straßenbahnlinie  044: Haltestelle 'Burg Linn'","text2":"montags bis freitags: 07.15 bis 16.15 Uhr","text3":"","text4":"Plätze für Kinder im Alter von zwei Jahren bis zum Schuleintritt","text5":"Stadt Krefeld","text6":"35 und 45 Wochenstunden","text7":"","text8":"35 und 45 Wochenstunden","text9":"","lat":51.335382,"lng":6.633961},"geometry":{"type":"Point","coordinates":[6.633961,51.335382]}},{"type":"Feature","properties":{"title":"Städtische Kindertageseinrichtung Krützboomweg","cat1":"Fischeln","cat2":["Kinder ab 4 Monate","integrativ"],"cat3":"Städtische Kindertageseinrichtungen","street":"Krützboomweg 1","zip":"47807","city":"Krefeld","region":"Fischeln","tel":"02151 / 365 95 48","mail":"ki.kruetzboomweg@krefeld.de","text1":"","text2":"montags bis donnerstags: 07.15 Uhr bis 16.30 Uhr, freitags 07.15 Uhr bis 15.15 Uhr","text3":"","text4":"Plätze für Kinder im Alter von vier Monaten bis zur Einschulung","text5":"","text6":"35 und 45 Wochenstunden","text7":"35 und 45 Wochenstunden","text8":"35 und 45 Wochenstunden","text9":"45 Wochenstunden","lat":51.29995,"lng":6.576376},"geometry":{"type":"Point","coordinates":[6.576376,51.29995]}},{"type":"Feature","properties":{"title":"Städtische Kindertageseinrichtung Kuhleshütte","description":"Teilnahme am Präventionsprogramm der BKK Novitas 'Fit von Klein auf'; 'Haus der kleinen Forscher'\r\n\r\n","cat1":"Oppum und Linn","cat2":"Kinder ab 2 Jahre","cat3":"Städtische Kindertageseinrichtungen","street":"Kuhleshütte 186","zip":"47809","city":"Krefeld","region":"Oppum","state":"NRW","tel":"0 21 51 / 54 69 30","mail":"ki.kuhleshuette@krefeld.de","text1":"Buslinie  057: Haltestelle 'Hinter Flur'; Straßenbahnlinie  044: Haltestelle 'Sandberg'","text2":"montags bis donnerstags: 07.15 bis 16.30 Uhr; freitags 7.15 bis 15.15 Uhr","text3":"Literatur und Kommunikation","text4":"Plätze für Kinder im Alter von zwei Jahren bis zur Einschulung","text5":"Stadt Krefeld","text6":"35 und 45 Wochenstunden","text7":"","text8":"35 und 45 Wochenstunden","text9":"","lat":51.330542,"lng":6.603262},"geometry":{"type":"Point","coordinates":[6.603262,51.330542]}},{"type":"Feature","properties":{"title":"Städtische Kindertageseinrichtung Kurfürstenstraße","description":"'Haus der kleinen Forscher'\r\n\r\n","cat1":"Uerdingen und Gellep-Stratum","cat2":"Kinder ab 3 Jahre","cat3":"Städtische Kindertageseinrichtungen","street":"Kurfürstenstraße 18","zip":"47829","city":"Krefeld","region":"Uerdingen","state":"NRW","tel":"0 21 51 / 94 46 44","mail":"ki.kurfuerstenstr@krefeld.de","text1":"Buslinien  058  und  059: Haltestelle  'Am Röttgen'; Straßenbahnlinie  043: Haltestelle 'Am Röttgen'","text2":"montags bis freitags: 07.00 bis 16.00 Uhr","text3":"Naturwissenschaften","text4":"Plätze für Kinder im Alter von drei Jahren bis zum Schuleintritt","text5":"Stadt Krefeld","text6":"","text7":"","text8":"35 und 45 Wochenstunden","text9":"","lat":51.355965,"lng":6.646911},"geometry":{"type":"Point","coordinates":[6.646911,51.355965]}},{"type":"Feature","properties":{"title":"Städtische Kindertageseinrichtung Legionstraße","cat1":"Uerdingen und Gellep-Stratum","cat2":"Kinder ab 2 Jahre","cat3":"Städtische Kindertageseinrichtungen","street":"Legionstraße 8","zip":"47809","city":"Krefeld","region":"Gellep-Stratum","tel":"0 21 51 / 57 29 41","mail":"ki.legionstr@krefeld.de","text1":"Buslinie  047  aus bzw in Richtung Hauptbahnhof: Haltestelle 'Gellep Kirche'; Buslinie  831: Haltestelle 'Stratum'","text2":"montags bis freitags: 07.00 bis 16.00 Uhr","text3":"","text4":"Plätze für Kinder im Alter von zwei Jahren bis zur Einschulung","text5":"Stadt Krefeld","text6":"25 und 35 Wochenstunden","text7":"","text8":"25 , 35 und 45 Wochenstunden","text9":"","lat":51.329433,"lng":6.671701},"geometry":{"type":"Point","coordinates":[6.671701,51.329433]}},{"type":"Feature","properties":{"title":"Städtische Kindertageseinrichtung Leuther Straße / Familienzentrum","description":"Familienzentrum; 'Agenda 21'","cat1":"Hüls","cat2":"Kinder ab 4 Monate","cat3":"Städtische Kindertageseinrichtungen","street":"Leuther Straße 15","zip":"47839","city":"Krefeld","region":"Hüls","state":"NRW","tel":"0 21 51 / 73 67 10","mail":"ki.leutherstr@krefeld.de","text1":"Buslinie 069, Haltestelle \"Am Mariengraben\"","text2":"montags bis donnerstags: 07.15 bis 16.30 Uhr; freitags: 07.15 bis 15.15 Uhr","text3":"","text4":"Plätze für Kinder im Alter von vier Monaten bis zur Einschulung","text5":"Stadt Krefeld","text6":"45 Wochenstunden","text7":"45 Wochenstunden","text8":"35 und 45 Wochenstunden","text9":"","lat":51.372911,"lng":6.495069},"geometry":{"type":"Point","coordinates":[6.495069,51.372911]}},{"type":"Feature","properties":{"title":"Städtische Kindertageseinrichtung Lüdersstraße","description":"Haus der kleinen Forscher;  Montessori-Pädagogik\r\n\r\n","cat1":"West","cat2":"Kinder ab 2 Jahre","cat3":"Städtische Kindertageseinrichtungen","street":"Lüdersstraße 12","zip":"47798","city":"Krefeld","region":"Stadtmitte","state":"NRW","tel":"0 21 51 / 77 75 15","mail":"ki.luedersstr@krefeld.de","text1":"Buslinie  058: Haltestelle 'Corneliusplatz'","text2":"montags bis donnerstags: 07.00 bis 16.30 Uhr; freitags 7.00 bis 14.00 Uhr\r\n","text3":"","text4":"Plätze für Kinder im Alter von zwei Jahren bis zum Schuleintritt","text5":"Stadt Krefeld","text6":"45 Wochenstunden","text7":"","text8":"35 Wochenstunden","text9":"","lat":51.325465,"lng":6.558239},"geometry":{"type":"Point","coordinates":[6.558239,51.325465]}},{"type":"Feature","properties":{"title":"Städtische Kindertageseinrichtung Lutherische-Kirch-Str.","description":"'Haus der kleinen Forscher'; Familienzentrum\r\n\r\n","cat1":"Mitte","cat2":"Kinder ab 2 Jahre","cat3":"Städtische Kindertageseinrichtungen","street":"Lutherische-Kirch-Straße 63 - 69","zip":"47798","city":"Krefeld","region":"Stadtmitte","state":"NRW","tel":"0 21 51 / 60 63 55","mail":"ki.luth.-kirchstr@krefeld.de","text1":"Straßenbahnlinie  041: Haltestelle 'Westwall / Rathaus'; Straßenbahnlinie  044: Haltestelle 'Friedrichsplatz'","text2":"montags bis freitags: 07.00 bis 16.00 Uhr","text3":"","text4":"Plätze für Kinder im Alter von zwei Jahren bis zur Einschulung","text5":"Stadt Krefeld","text6":"45 Wochenstunden","text7":"","text8":"35 und 45 Wochenstunden","text9":"","lat":51.335556,"lng":6.559339},"geometry":{"type":"Point","coordinates":[6.559339,51.335556]}},{"type":"Feature","properties":{"title":"Städtische Kindertageseinrichtung Lutherplatz","description":"Elementare musische Erziehung / EMU; \"Haus der kleinen Forscher\"; Teilnahme am Präventionsprogramm der BKK Novitas \"Fit von Klein auf\"\r\n\r\n","cat1":"Süd","cat2":"Kinder ab 4 Monate","cat3":"Städtische Kindertageseinrichtungen","street":"Lutherplatz 40","zip":"47805","city":"Krefeld","region":"Dießem-Lehmheide","state":"NRW","tel":"0 21 51 / 39 54 36","mail":"ki.lutherplatz@krefeld.de","text1":"Straßenbahnlinien  041, 042, 043 und 044: Haltestelle 'Kölner Straße / Klinikum'","text2":"montags bis freitags: 6.00 bis 17.30 Uhr","text3":"","text4":"Plätze für Kinder im Alter von vier Monaten bis zum Schuleintritt","text5":"Stadt Krefeld","text6":"45 Wochenstunden","text7":"45 Wochenstunden","text8":"45 Wochenstunden","text9":"","lat":51.320241,"lng":6.565065},"geometry":{"type":"Point","coordinates":[6.565065,51.320241]}},{"type":"Feature","properties":{"title":"Städtische Kindertageseinrichtung Märklinstraße / Familienzentrum","description":"\"Haus der kleinen Forscher\"\r\n\r\n","cat1":"Süd","cat2":"Kinder ab 2 Jahre","cat3":"Städtische Kindertageseinrichtungen","street":"Märklinstraße 10","zip":"47805","city":"Krefeld","region":"Dießem-Lehmheide","state":"NRW","tel":"0 21 51 / 31 25 17","mail":"ki.maerklinstr@krefeld.de","text1":"Straßenbahnlinie 042/043 , Buslinie 054, Haltestelle \"Lehmheide\"","text2":"montags bis freitags: 07.30 bis 16.30 Uhr","text3":"","text4":"Plätze für Kinder im Alter von zwei Jahren bis zum Schuleintritt","text5":"Stadt Krefeld","text6":"45 Wochenstunden","text7":"","text8":"35 und 45 Wochenstunden","text9":"","lat":51.318914,"lng":6.562568},"geometry":{"type":"Point","coordinates":[6.562568,51.318914]}},{"type":"Feature","properties":{"title":"Städtische Kindertageseinrichtung Mittelorbroich","description":"","cat1":"Hüls","cat2":"Kinder ab 3 Jahre","cat3":"Städtische Kindertageseinrichtungen","street":"Mittelorbroich 73","zip":"47839","city":"Krefeld","region":"Hüls","state":"NRW","tel":"0 21 51 / 73 18 65","mail":"ki.mittelorbroich@krefeld.de","text1":"Buslinie 079/077/076 , Haltestelle \"Vorderorbroich\"","text2":"montags bis freitags: 07.00 bis 14.00 Uhr","text3":"","text4":"Plätze für Kinder im Alter von drei Jahren bis zur Einschulung","text5":"Stadt Krefeld","text6":"","text7":"","text8":"35 Wochenstunden","text9":"","lat":51.390936,"lng":6.495297},"geometry":{"type":"Point","coordinates":[6.495297,51.390936]}},{"type":"Feature","properties":{"title":"Städtische Kindertageseinrichtung Neuhofsweg / Familienzentrum","description":"Familienzentrum; Kunstprojekte mit Kindern","cat1":"Ost","cat2":"Kinder ab 4 Monate","cat3":"Städtische Kindertageseinrichtungen","street":"Neuhofsweg 25","zip":"47829","city":"Krefeld","region":"Gartenstadt","state":"NRW","tel":"0 21 51 / 47 31 49","mail":"ki.neuhofsweg@krefeld.de","text1":"Buslinie  058: Haltestelle 'Elfrather Mühle; Straßenbahnlinie  042: Haltestelle 'Elfrather Mühle'","text2":"montags bis freitags: 07.15 bis 16.15 Uhr","text3":"","text4":"Plätze für Kinder im Alter von vier Monaten bis zur Einschulung","text5":"Stadt Krefeld","text6":"35 und 45 Wochenstunden","text7":"45 Wochenstunden","text8":"35 und 45 Wochenstunden","text9":"","lat":51.372845,"lng":6.618517},"geometry":{"type":"Point","coordinates":[6.618517,51.372845]}},{"type":"Feature","properties":{"title":"Städtische Kindertageseinrichtung Niederbruchstraße","description":"Elementare musische Erziehung / EMU\r\n\r\n","cat1":"Fischeln","cat2":"Kinder ab 2 Jahre","cat3":"Städtische Kindertageseinrichtungen","street":"Niederbruchstraße 70","zip":"47807","city":"Krefeld","region":"Fischeln","state":"NRW","tel":"0 21 51 / 93 38 54","mail":"ki.niederbruchstr@krefeld.de","text1":"Buslinie  052: Haltestelle 'Niederbruch / Siemesdyk'; K-Bahnlinie  U 76: Haltestelle 'Königshof'","text2":"montags bis donnerstags: 07.15 bis 16.30 Uhr; freitags 07.15 bis 15.15 Uhr","text3":"","text4":"Plätze für Kinder im Alter von zwei Jahren bis zum Schuleintritt","text5":"Stadt Krefeld","text6":"35 und 45  Wochenstunden","text7":"","text8":"35 und 45 Wochenstunden","text9":"","lat":51.318021,"lng":6.590912},"geometry":{"type":"Point","coordinates":[6.590912,51.318021]}},{"type":"Feature","properties":{"title":"Städtische Kindertageseinrichtung Oberdießemer Straße","cat1":"Süd","cat2":"Kinder ab 4 Monate","cat3":"Städtische Kindertageseinrichtungen","street":"Oberdießemer Straße 54","zip":"47805 ","city":"Krefeld","tel":"02151/1500288","mail":"ki.ritterstr@krefeld.de","text1":"Buslinie 052: Haltestelle Ritterstraße","text2":"montags bis donnerstags 07.30 bis 17.00 Uhr, \r\nfreitags 07.30 Uhr bis 16.30 Uhr\r\n","text3":"","text4":"Plätze für Kinder im Alter von 4 Monaten bis zur Einschulung","text5":"","text6":"45 Wochenstunden","text7":"45 Wochenstunden","text8":"","text9":"","lat":51.326851,"lng":6.582637},"geometry":{"type":"Point","coordinates":[6.582637,51.326851]}},{"type":"Feature","properties":{"title":"Städtische Kindertageseinrichtung Peter-Lauten-Straße","description":"Interkulturelle Pädagogik, Theaterpädagogik\r\n\r\n","cat1":"West","cat2":"Kinder ab 4 Monate","cat3":"Städtische Kindertageseinrichtungen","street":"Peter-Lauten-Straße 62a","zip":"47803","city":"Krefeld","region":"West","state":"NRW","tel":"0 21 51 / 1 52 14 84","mail":"ki.peter-lauten@krefeld.de","text1":"Straßenbahnlinie 041,Haltestelle \"Gutenbergstr.\"","text2":"montags bis freitags: 07.30 bis 16.30 Uhr; \r\nDependance Auf der Kempener Platte: montags bis freitags 7.30 Uhr bis 14.30 Uhr","text3":"","text4":"Plätze für Kinder im Alter von zwei Jahren bis zum Schuleintritt","text5":"Stadt Krefeld","text6":"45 Wochenstunden","text7":"35 Wochenstunden","text8":"35 und 45 Wochenstunden","text9":"","lat":51.330583,"lng":6.544283},"geometry":{"type":"Point","coordinates":[6.544283,51.330583]}},{"type":"Feature","properties":{"title":"Städtische Kindertageseinrichtung Prinzenbergstraße / Familienzentrum","description":"Familienzentrum; 'Haus der kleinern Forscher';\r\n\r\n","cat1":"West","cat2":"Kinder ab 4 Monate","cat3":"Städtische Kindertageseinrichtungen","street":"Prinzenbergstraße 80","zip":"47803","city":"Krefeld","region":"Kempener Feld / Baackeshof","state":"NRW","tel":"0 21 51 / 3 60 19 88","mail":"ki.prinzenbergstr@krefeld.de","text1":"Buslinie 057/061, Haltestelle \"Girmesgath\", Straßenbahnlinie 044, Haltestelle \"Moritzplatz\"","text2":"montags bis donnerstags: 07.00 bis 16.15 Uhr; freitags: 07.00 Uhr bis 15.00 Uhr","text3":"","text4":"Plätze für Kinder im Alter von vier Monaten bis zum Schuleintritt","text5":"Stadt Krefeld","text6":"45 Wochenstunden","text7":"45 Wochenstunden","text8":"35 und 45 Wochenstunden","text9":"","lat":51.341338,"lng":6.544283},"geometry":{"type":"Point","coordinates":[6.544283,51.341338]}},{"type":"Feature","properties":{"title":"Städtische Kindertageseinrichtung Raiffeisenstraße","description":"'Haus der kleinen Forscher'\r\n\r\n","cat1":"West","cat2":"Kinder ab 2 Jahre","cat3":"Städtische Kindertageseinrichtungen","street":"Raiffeisenstr. 30","zip":"47803","city":"Krefeld","region":"Kempener Feld / Baackeshof","state":"NRW","tel":"0 21 51 / 75 06 51","mail":"ki.raiffeisenstr@krefeld.de","text1":"Buslinie  057 aus bzw in Richtung Hauptbahnhof: Haltestelle 'De-Greiff-Straße'","text2":"montags bis freitags: 07.00 bis 16.00 Uhr","text3":"Naturwissenschaften","text4":"Plätze für Kinder im Alter von zwei Jahren bis zur Einschulung","text5":"Stadt Krefeld","text6":"35 und 45 Wochenstunden","text7":"","text8":"35 und 45 Wochenstunden","text9":"","lat":51.338208,"lng":6.538189},"geometry":{"type":"Point","coordinates":[6.538189,51.338208]}},{"type":"Feature","properties":{"title":"Städtische Kindertageseinrichtung Remscheider Straße / Familienzentrum","description":"Familienzentrum; Elementare musische Erziehung / EMU; Teilnahme am Präventionsprogramm der BKK Novitas - 'Fit von Klein auf'","cat1":"Fischeln","cat2":"Kinder ab 4 Monate","cat3":"Städtische Kindertageseinrichtungen","street":"Remscheider Straße 12","zip":"47807","city":"Krefeld","region":"Fischeln","state":"NRW","tel":"0 21 51 / 31 49 42","mail":"ki.remscheiderstr@krefeld.de / fz-remscheiderstr@krefeld.de","text1":"Buslinien  058  und  060: Haltestelle 'Tiroler Weg'","text2":"montags bis freitags: 07.00 bis 16.00 Uhr","text3":"","text4":"Plätze für Kinder im Alter von vier Monaten bis zur Einschulung","text5":"Stadt Krefeld","text6":"35 und 45 Wochenstunden","text7":"45 Wochenstunden","text8":"25 und 35 Wochenstunden","text9":"","lat":51.309352,"lng":6.570363},"geometry":{"type":"Point","coordinates":[6.570363,51.309352]}},{"type":"Feature","properties":{"title":"Städtische Kindertageseinrichtung Ritterstraße / Familienzentrum","description":"Integrative Kindertageseinrichtung: Gemeinsame Betreuung, Erziehung und Förderung von behinderten und nicht behinderten Kindern ab zwei Jahren.\r\n\r\n","cat1":"Süd","cat2":["Kinder ab 2 Jahre","integrativ"],"cat3":"Städtische Kindertageseinrichtungen","street":"Ritterstraße 150","zip":"47805","city":"Krefeld","region":"Dießem-Lehmheide","state":"NRW","tel":"0 21 51 / 39 88 80","mail":"ki.ritterstr@krefeld.de","text1":"Buslinie  061: Haltestelle 'Siemensstraße'; Buslinie  057: Haltestelle 'Hauptbahnhof'; Straßenbahnlinien  041, 042 , 043 und 044: Haltestelle 'Hauptbahnhof'","text2":"montags bis freitags: 07.30 bis 16.30 Uhr","text3":"","text4":"Plätze für Kinder im Alter von zwei Jahren bis zur Einschulung","text5":"Stadt Krefeld","text6":"35 und 45 Wochenstunden","text7":"45 Wochenstunden","text8":"35 und 45 Wochenstunden","text9":"45 Wochenstunden","lat":51.324489,"lng":6.574668},"geometry":{"type":"Point","coordinates":[6.574668,51.324489]}},{"type":"Feature","properties":{"title":"Städtische Kindertageseinrichtung Steckendorfer Straße / Familienzentrum","description":"Familienzentrum; Zwergenbibliothek; Teilnahme am Präventionsprogramm der BKK Novitas - 'Fit von Klein auf'","cat1":"Mitte","cat2":"Kinder ab 4 Monate","cat3":"Städtische Kindertageseinrichtungen","street":"Steckendorfer Straße 60 a","zip":"47799","city":"Krefeld","region":"Cracau","state":"NRW","tel":"0 21 51 / 2 56 08","mail":"ki.steckendorfer@krefeld.de","text1":"Straßenbahnlinie  044: Haltestelle 'Nordwall';  Buslinie  058: Haltestelle 'Bleichpfad'","text2":"montags bis freitags: 07.00 bis 16.00 Uhr","text3":"","text4":"Plätze für Kinder im Alter von vier Monaten bis zur Einschulung","text5":"Stadt Krefeld","text6":"35 und 45 Wochenstunden","text7":"45 Wochenstunden","text8":"35 und 45 Wochenstunden","text9":"","lat":51.338881,"lng":6.568299},"geometry":{"type":"Point","coordinates":[6.568299,51.338881]}},{"type":"Feature","properties":{"title":"Städtische Kindertageseinrichtung Verberger Straße","description":"Bewegungskindergarten; Zwergenbibliothek; Teilnahme am Präventionsprogramm der BKK Novitas - 'Fit von Klein auf'","cat1":"Ost","cat2":"Kinder ab 3 Jahre","cat3":"Städtische Kindertageseinrichtungen","street":"Verberger Straße 23","zip":"47800","city":"Krefeld","region":"Bockum","state":"NRW","tel":"0 21 51 / 50 30 71","mail":"ki.verbergerstr@krefeld.de","text1":"Straßenbahnlinien  042  und  043: Haltestelle 'Bockum Rathaus'","text2":"montags bis freitags: 07.30 bis 16.30 Uhr","text3":"","text4":"Plätze für Kinder im Alter von drei Jahren bis zum Schuleintritt","text5":"Stadt Krefeld","text6":"","text7":"","text8":"35 und 45 Wochenstunden","text9":"","lat":51.349437,"lng":6.61953},"geometry":{"type":"Point","coordinates":[6.61953,51.349437]}},{"type":"Feature","properties":{"title":"Städtische Kindertageseinrichtung Viktoriastraße/ Familienzentrum","description":"Integrative Kindertageseinrichtung: Gemeinsame Betreuung, Erziehung und Förderung von behinderten und nicht-behinderten Kindern ab zwei Jahren; Elementare musische Erziehung / EMU; Zwergenbibiothek;\r\n\r\n","cat1":"Mitte","cat2":["Kinder ab 2 Jahre","integrativ"],"cat3":"Städtische Kindertageseinrichtungen","street":"Viktoriastraße 96","zip":"47799","city":"Krefeld","region":"Cracau","state":"NRW","tel":"02151 / 36 09 52","mail":"ki.viktoriastr@krefeld.de","text1":"Straßenbahnlinien  042  und  043: Haltestelle 'Viktoriastraße'","text2":"montags bis freitags: 07.00 bis 16.30 Uhr","text3":"Integration von behinderten und nicht-behinderten Kindern","text4":"Plätze für Kinder im Alter von zwei Jahren bis zum Schuleintritt","text5":"Stadt Krefeld","text6":"35 und 45 Wochenstunden","text7":"","text8":"35 und 45 Wochenstunden","text9":"45 Wochenstunden","lat":51.335222,"lng":6.576331},"geometry":{"type":"Point","coordinates":[6.576331,51.335222]}},{"type":"Feature","properties":{"title":"Städtische Kindertageseinrichtung Westwall  / Familienzentrum","cat1":"Mitte","cat2":["Kinder ab 4 Monate","integrativ"],"cat3":"Städtische Kindertageseinrichtungen","street":"Westwall 200","zip":"47798","city":"Krefeld","region":"Mitte","tel":"02151 / 1 52 01 82","mail":"ki.westwall@krefeld.de","text1":"Straßenbahn Linie 041, Haltestelle \"Rathaus\", Bus Linie 057 Haltestelle \"Hubertusstr.\"","text2":"montags bis freitags: 7:00 - 16:00","text3":"","text4":"Plätze für Kinder im Alter von vier Monaten bis zur Einschulung","text5":"Stadt Krefeld","text6":"35 und 45 Wochenstunden","text7":"45 Wochenstunden","text8":"35 und 45 Wochenstunden","text9":"45 Wochenstunden","lat":51.336767,"lng":6.556115},"geometry":{"type":"Point","coordinates":[6.556115,51.336767]}},{"type":"Feature","properties":{"title":"Städtische Kindertageseinrichtung Wilhelmstraße","cat1":"Fischeln","cat2":"Kinder ab 4 Monate","cat3":"Städtische Kindertageseinrichtungen","street":"Wilhelmstraße 57","zip":"47807","city":"Krefeld","region":"Fischeln","state":"NRW","tel":"0 21 51 / 30 53 88","mail":"ki.wilhelmstr@krefeld.de","text1":"Straßenbahnlinie  041: Haltestelle 'Stadtpark Fischeln';  K-Bahnlinien  U 70  und  U 76: Haltestelle 'Königshof'","text2":"montags bis freitags: 07.30 bis 16.30 Uhr","text3":"Literatur und Kommunikation","text4":"Plätze für Kinder im Alter von zwei Jahren bis zur Einschulung","text5":"Stadt Krefeld","text6":"45 Wochenstunden","text7":"45 Wochenstunden","text8":"25, 35 und 45 Wochenstunden","text9":"","lat":51.310045,"lng":6.5884},"geometry":{"type":"Point","coordinates":[6.5884,51.310045]}},{"type":"Feature","properties":{"title":"Waldorfkindergarten Fichtenhain e.V.","description":"Die Betreuung und Erziehung erfolgt nach den Grundlagen der Waldorf-Pädagogik.","cat1":"West","cat2":"Kinder ab 4 Monate","cat3":"Waldorfkindergärten","street":"Bückerfeldstraße 22","zip":"47803","city":"Krefeld","region":"Kempener Feld / Baackeshof","state":"NRW","tel":"0 21 51 / 31 36 99","mail":"info@waldorfkindergarten-fichtenhain.de","web":"www.waldorfkindergarten-fichtenhain.de","text1":"Buslinie 057, Haltestelle \"Bückerfeldstraße\"","text2":"montags bis donnerstags: 07.30 bis 17.00 Uhr; freitags: 07.30 bis 14.30 Uhr","text3":"","text4":"Plätze für Kinder im Alter von vier Monaten bis zur Einschulung","text5":"Elterninitiative Waldorf-Kindergarten Fichtenhain e.V.","text6":"45 Wochenstunden","text7":"45 Wochenstunden","text8":"35 und 45 Wochenstunden","text9":"","lat":51.341026,"lng":6.524692},"geometry":{"type":"Point","coordinates":[6.524692,51.341026]}},{"type":"Feature","properties":{"title":"Waldorfkindergarten Kaiserstraße","description":"Die Betreuung und Erziehung erfolgt nach den Grundlagen der Waldorf-Pädagogik, Nordrhein-Westfalen.","cat1":"Ost","cat2":["Kinder ab 2 Jahre","integrativ"],"cat3":"Waldorfkindergärten","street":"Kaiserstr. 43","zip":"47800","city":"Krefeld","region":"Krefeld - Bockum","state":"NRW","tel":"0 21 51 / 3281291","mail":"kaiser@waldorfkindergarten-krefeld.de","web":"www.waldorfkindergarten-krefeld.de/","text1":"Straßenbahnlinie 042, Haltestelle \"Kaiserstraße\", Straßenbahnlinie 044, Haltestelle \"Glockenspitz\"","text2":"montags bis freitags: 07.00 bis 16.00 Uhr","text3":"","text4":"Plätze für Kinder im Alter von zwei Jahren bis zum Schuleintritt","text5":"Rudolf Steiner Waldorfkindergarten e.V.","text6":"35 und 45 Wochenstunden","text7":"","text8":"35 und 45 Wochenstunden","text9":"45 Wochenstunden","lat":51.336264,"lng":6.59457},"geometry":{"type":"Point","coordinates":[6.59457,51.336264]}},{"type":"Feature","properties":{"title":"Waldorfkindergarten Kreuzbergstraße","description":"Die Betreuung und Erziehung erfolgt nach den Grundlagen der Waldorf-Pädagogik, Nordrhein-Westfalen.","cat1":"Ost","cat2":"Kinder ab 2 Jahre","cat3":"Waldorfkindergärten","street":"Kreuzbergstraße 11","zip":"47800","city":"Krefeld","region":"Bockum","state":"NRW","tel":"0 21 51 / 3281292","mail":"kreuzberg@waldorfkindergarten-krefeld.de","web":"www.waldorfkindergarten-krefeld.de","text1":"Buslinie 054, Haltestelle \"Buschstraße\"","text2":"montags bis freitags: 07.00 bis 16.00 Uhr","text3":"","text4":"Plätze für Kinder im Alter von zwei Jahren bis zur Einschulung","text5":"Rudolf Steiner Waldorfkindergarten e.V.","text6":"35 und  45 Wochenstunden","text7":"","text8":"35 und 45 Wochenstunden","text9":"","lat":51.349383,"lng":6.609643},"geometry":{"type":"Point","coordinates":[6.609643,51.349383]}}]}